,index,Name1,Name2,Street1,Street2,City,State,Zip,Phone,Intake1,Intake2,Intake1a,Intake2a,Service_code_info,lat,long
0,0,SpectraCare Health Systems,Henry County Clinic,219 Dothan Road,,Abbeville,AL,36310,800-951-4357,,,,,SA MH SUMH * OP * CMHC * CHLOR FLUPH HALOP PERPH ARIPI ASENA BREXP CARIP CLOZA ILOPE LURAS OLANZ PALIP QUETI RISPE ZIPRA NRT NSC ANTPYCH * CBT CFT GT IDD IPT TELE * PEON WI * PVTN * CLF CMHG CSBG MC MD MI OSF PI SCJJ SEF SF SMHA SWFS * SS * TAY SE GL VET ADM MF CJ CO HV TRMA ALZ PTSD SED SMI * STU * TCC * SMPD * CHLD YAD ADLT SNR * AH * VPPD * ACT COOT DEC FPSY ICM IMR PRS CM SPS ES,31.573584286885243,-85.23400816721312
1,1,SpectraCare Health Systems,Henry County Day Treatment,1242 US Highway 431 South,,Abbeville,AL,36310,800-951-4357,334-951-4357,,,,MH SUMH * OP * CMHC * CHLOR FLUPH HALOP PERPH ARIPI ASENA BREXP CARIP CLOZA ILOPE LURAS OLANZ PALIP QUETI RISPE ANTPYCH * CBT CFT GT IDD IPT TELE * PEON * PVTN * CLF CMHG CSBG MC MD MI OSF PI SEF SF SMHA * SS * SE CO SMI * SMPD * YAD ADLT SNR * AH * VPPD * COOT DEC FPSY IMR PRS VRS CM SPS ES,31.573584286885243,-85.23400816721312
2,2,South Central Alabama MHC,Covington County Mental Health Center,19815 Bay Branch Road,,Andalusia,AL,36420,334-222-2523,877-530-0002,,,,MH SUMH * OP * CMHC * FLUPH HALOP PERPH THIOT THIOR TRIFL ARIPI ASENA BREXP CARIP CLOZA LURAS OLANZ OLANZF PALIP QUETI RISPE ZIPRA ANTPYCH * AT CBT CFT GT IPT TELE AIM * CIT PEON PEOFF WI * PVTN * MC MD MI PI SF SMHA SWFS VAF * PA SS * SE SED SMI * STU * TBS MST LABT * SMPD * CHLD YAD ADLT SNR * AH * VPPD * COOT FPSY PRS SH CM SPS,31.303952373023254,-86.4802309967442
3,3,South Central Alabama MHC,Montezuma Complex,205 Academy Drive,,Andalusia,AL,36420,334-428-5050,877-530-0002,,,,SA MH SUMH * OP PHDT RES * MSMH * FLUPH HALOP PERPH THIOT THIOR TRIFL ARIPI ASENA BREXP CARIP CLOZA LURAS OLANZ OLANZF PALIP QUETI RISPE ZIPRA ANTPYCH * AT CBT CFT GT IPT TELE AIM * PVTN * CMHG MC MD PI SF SMHA * PA SS * SED SMI * STU * TBS MST LABT * PEER * SMPD * CHLD YAD ADLT SNR * AH * VPPD * COOT FPSY PRS SH CM IPC,31.303952373023254,-86.4802309967442
4,4,RMC Health System,Regional Medical Center,400 East 10th Street,,Anniston,AL,36207,256-235-5121,256-235-5082,256-235-5482,,,SA MH * HI * IPSY * CHLOR FLUPH HALOP LOXAP ARIPI CLOZA LURAS OLANZ PALIP QUETI RISPE ZIPRA NRT NSC ANTPYCH * AT CBT CFT GT IPT AIM * CIT PEON * PVTN * MC MD MI PI SF SI SMHA VAF * SE VET CO HV DV TRMA ALZ PEFP PTSD SMI * STU * HIVT STDT TBS MST HBT HCT LABT * TCC * SMON * YAD ADLT SNR * AH * VAPN * CDM COOT CM IPC SPS ES,33.65155845887681,-85.78122011032609
5,5,SpectraCare Health Systems,Cottonwood Specialized Care,1539 Sweetie Smith Road,,Ashford,AL,36312,334-691-8030,800-951-4357,,,,MH SUMH * RES * RTCA * CHLOR FLUPH HALOP PERPH ARIPI ASENA BREXP CARIP CLOZA ILOPE LURAS OLANZ PALIP QUETI RISPE ZIPRA NRT NSC ANTPYCH * CBT GT IDD TELE * PEON * PVTN * CLF CMHG CSBG MC MD MI PI SCJJ SEF SF SI SMHA SWFS * SS * SE GL VET MF CJ CO HV TRMA PTSD SMI * TCC * SMPD * YAD ADLT SNR * AH * VPPD * COOT DEC FPSY LAD PRS CM IPC SPS,31.173326029545457,-85.2451813719697
6,6,MHCNCA Inc,Athens Limestone Counseling Center,1307 East Elm Street,,Athens,AL,35611,256-232-3661,256-355-5904,800-365-6008,,,MH SUMH * OP PHDT * CMHC * FLUPH HALOP LOXAP PERPH ARIPI ASENA CARIP CLOZA ILOPE LURAS OLANZ PALIP QUETI RISPE ZIPRA ANTPYCH * CBT CFT GT IPT TELE AIM * CIT * PVTN * CLF CMHG CSBG MC MD OSF PI SF SI SMHA * TAY SE CJ CO SED SMI * STU * PEER * SMPD * CHLD YAD ADLT SNR * AH * VPPD * COOT FPSY CM,34.79151040915805,-87.0041312445347
7,7,Cherokee Etowah Dekalb CMHC,Etowah County Office,1425 Rainbow Drive,,Attalla,AL,35901,256-492-7800,,,,,SA MH SUMH * OP * CMHC * ARIPI ASENA BREXP CARIP CLOZA ILOPE LURAS OLANZ PALIP QUETI RISPE ZIPRA ANTPYCH * CBT CFT DBT EMDR GT IDD IPT TELE AIM * CIT WI * PVTN * CMHG MC MD MI PI SCJJ SEF SF SI SMHA SWFS VAF * SS * CO SED SMI * TBS * HS PEER * TCC * SMPD * CHLD YAD ADLT SNR * AH * VPPD * ACT COOT ICM SH CM,34.017512545596595,-85.98453648451705
8,8,Medical West,An Affiliate of the UAB Health System,995 9th Avenue SW,,Bessemer,AL,35022,205-481-7000,205-481-7145,205-481-7661,,,MH SUMH * HI * IPSY * CHLOR DROPE FLUPH HALOP PERPH PIMOZ PROCH ARIPI CLOZA LURAS OLANZ PALIP QUETI RISPE ZIPRA ANTPYCH * AT CBT GT IPT * CIT PEON * STG * MC MD PI SF SI VAF * SE * SMON * SNR * VAPN * COOT DEC PRS CM IPC,33.34577793871636,-86.96052787908903
9,9,Birmingham VA HealthCare System,Birmingham VA East Clinic,7901 Crestwood Boulevard,,Birmingham,AL,35210,205-933-8101,205-933-8101 x33550,205-933-8101 x2232,,,SA MH SUMH * OP PHDT * VAHC * NRT * CBT CFT DBT GT IDD IPT TELE * CIT WI * FED VAMC * MC MI PI VAF * VET MF SMI * STU * LABT * HS PEER * TCC * SMON * YAD ADLT SNR * AH * VAPN * COOT DEC FPSY ICM SH CM ES,33.53454702734375,-86.68749478945313
10,10,Eastlake Group Homes,,7744 1st Avenue South,,Birmingham,AL,35206,205-836-6538,205-595-4555,,,,MH * RES * RTCA * CHLOR FLUPH HALOP LOXAP PERPH ARIPI BREXP CLOZA LURAS OLANZ OLANZF PALIP QUETI RISPE ZIPRA ANTPYCH * CBT CFT DBT GT IPT TELE AIM * PVTN * CMHG MD SF SMHA * SMI * TBS MST LABT * HS PEER * SMPD * YAD ADLT SNR * VAPN * CDM DEC FPSY IMR PRS,33.56748523641851,-86.72200845392354
11,11,Eastside CMHC,Jefferson County,129 East Park Circle,,Birmingham,AL,35235,205-836-7283,,,,,MH * OP PHDT * CMHC * HALOP ARIPI OLANZ QUETI RISPE ANTPYCH * CFT GT IPT TELE * CIT * PVTN * CLF CMHG MC MD OSF PI SF SI SMHA * SS * TAY SE CO SED SMI * STU * PEER * TCC * SMPD * CHLD YAD ADLT SNR * AH * VPPD * ACT COOT FPSY IMR PRS,33.6193065872781,-86.65862873461539
12,12,Gateway,,1401 20th Street South,,Birmingham,AL,35205,205-510-2600,,,,,MH SUMH * OP * AT CFT GT IPT TELE * PVTN * MD * TAY TRMA SED * HS * SMON * CHLD YAD ADLT SNR * AH SP * VAPN * FPSY TPC CM ES,33.49835494932976,-86.81373282372655
13,13,Glenwood Inc,Main Campus,150 Glenwood Lane,,Birmingham,AL,35242,205-969-2880,,,,,MH SUMH * OP PHDT RES * MSMH * CHLOR FLUPH HALOP LOXAP PERPH PIMOZ PROCH THIOT THIOR TRIFL ANTPYCH * AT CBT CFT GT IDD IPT TELE * PEON * PVTN * MC MD MI OSF PI SEF SF SI SMHA SWFS * SS * TAY TRMA SED * MST LABT * SMON * CHLD YAD ADLT SNR * AH * VAPN * DEC FPSY PRS SEMP VRS ES,33.41344587260826,-86.6772655652568
14,14,Princeton Baptist Medical Center,,701 Princeton Avenue SW,,Birmingham,AL,35211,205-783-3650,,,,,MH * HI * IPSY * CHLOR HALOP ARIPI CLOZA LURAS OLANZ PALIP QUETI RISPE ZIPRA NRT NSC ANTPYCH * AT CBT GT IPT TELE * WI * PVTP * CLF CMHG CSBG ITU MC MD MI OSF PI SF SI SMHA VAF * SE VET CO ALZ PTSD * STU * MST LABT * TCC * SMON * SNR * AH * VAPN * CDM COOT DEC FPSY ICM IMR PRS CM IPC SPS ES,33.47568668140703,-86.85909428592964
15,15,Rehabilitation Day Program,Jasper House,2112 Avenue,Suite H,Birmingham,AL,35218,205-324-9822,,,,,MH SUMH * RES * RTCA * HALOP LOXAP CLOZA OLANZ PALIP QUETI RISPE ANTPYCH * AT CBT GT * CIT * PVTN * MC MD SF * HV SMI * STDT TBS * TCC * SMPD * YAD ADLT SNR * AH * VPPD * PRS SH CM,33.50723066081871,-86.89202688479531
16,16,Serenity Treatment Services,,85 Bagby Drive,Suite 218,Birmingham,AL,35209,205-917-9034,205-834-4448,,,,SA MH * OP * CBT DBT GT IDD IPT TELE * PVTN * SF SMHA SWFS * SS * CJ TRMA * SMPD * YAD ADLT SNR * VPPD * COOT CM ES,33.47021794682861,-86.80852712982457
17,17,Taproot Therapy Collective,,2025 Shady Crest Drive,2nd Floor,Birmingham,AL,35216,205-999-9240,205-598-6471,,,,SA MH SUMH * OP * OMH * AT CBT CFT DBT EMDR GT IPT TELE * PVTP * PI SF * SS * TAY SE GL VET ADM MF CJ CO HV DV TRMA TBI ALZ PED PEFP PTSD SED SMI * STU * TCC * SMON * CHLD YAD ADLT SNR * VAPN * ACT FPSY SPS,33.419336143032154,-86.79058555283308
18,18,UAB Hospital,Center for Psychiatric Medicine,619 19th Street South,,Birmingham,AL,35249,205-975-2710,205-934-7008,,,,SA MH SUMH * HI OP * PSY * CHLOR FLUPH HALOP LOXAP PERPH PROCH TRIFL ARIPI ASENA CLOZA LURAS OLANZ PALIP QUETI NRT NSC ANTPYCH * AT CBT CFT ECT GT IDD IPT TELE AIM * CIT PEON WI * PVTN * CLF CMHG CSBG MC MD MI OSF PI SCJJ SEF SF SI SMHA SWFS * TAY SE GL CO TRMA ALZ PED PTSD SED SMI * STU * MST LABT * PEER * TCC * SMPD * CHLD YAD ADLT SNR * AH SP * VPPD * ACT CDM COOT DEC FPSY ICM IMR PRS SEMP CM IPC SPS,14.4866914,121.0214161
19,19,West Alabama Mental Health Center,,401 Rodgers Street,,Butler,AL,36904,205-459-2612,800-239-2901,334-289-2410,,,SA MH SUMH * OP * CMHC * FLUPH HALOP PERPH ARIPI ASENA BREXP CLOZA OLANZ PALIP QUETI RISPE ZIPRA ANTPYCH * AT CBT CFT GT IDD IPT TELE AIM * CIT * PVTN * CLF CMHG CSBG MC MD MI OSF PI SCJJ SF SI SMHA SWFS VAF * PA SS * CO SMI * HS PEER * SMON * CHLD YAD ADLT SNR * AH * VAPN * COOT FPSY ICM SEMP SH CM SPS,32.09417401978022,-88.20972957912088
20,20,Hamilton Center,,151 Hamilton Lane,,Calera,AL,35040,205-651-0077,,,,,SA MH SUMH * OP PHDT RES * MSMH * ANTPYCH * AT CBT CFT DBT GT IDD IPT TELE * STG * CLF MC MD PI SCJJ SF SMHA * SS * STU * HS PEER * SMPD * YAD ADLT SNR * AH * VPPD * COOT FPSY SEMP SH CM SPS,33.11428444865771,-86.75224830872483
21,21,Cherokee Etowah Dekalb CMHC,Cherokee County Office,200 Dean Buttram Senior Avenue,,Centre,AL,35960,256-927-3601,,,,,SA MH SUMH * OP * CMHC * FLUPH ARIPI ASENA BREXP CARIP CLOZA ILOPE LURAS OLANZ PALIP QUETI RISPE ZIPRA ANTPYCH * CBT CFT DBT GT IDD IPT TELE AIM * CIT WI * PVTN * CMHG MC MD MI PI SCJJ SEF SF SI SMHA SWFS VAF * SS * CO SED SMI * TBS * PEER * TCC * SMPD * CHLD YAD ADLT SNR * AH * VPPD * COOT ICM CM,34.14830315064378,-85.61891683862662
22,22,Cherokee Etowah Dekalb CMHC,White/Parker Home Specialized,901 Edith Street,,Centre,AL,35960,256-927-2687,,,,,SA MH SUMH * RES * RTCA * ARIPI ASENA BREXP CARIP CLOZA ILOPE LURAS OLANZ PALIP QUETI RISPE ZIPRA ANTPYCH * AT CBT CFT DBT GT IDD IPT TELE AIM * CIT * PVTN * CMHG MC MD MI OSF PI SF SI SMHA VAF * CO SMI * STU * TBS * HS * TCC * SMPD * CHLD YAD ADLT SNR * AH * VPPD * COOT DEC FPSY PRS VRS CM SPS ES,34.14830315064378,-85.61891683862662
23,23,AltaPointe Health Systems Inc,Community Counseling/Washington Cnty,63 Dixie Youth Drive,,Chatom,AL,36518,251-277-9173,251-450-2211,,,,SA MH SUMH * OP * OMH * CHLOR FLUPH HALOP LOXAP PERPH ARIPI CLOZA OLANZ OLANZF PALIP RISPE NRT ANTPYCH * CBT CFT DBT GT IDD IPT TELE AIM * CIT WI * PVTN * CMHG MC MD OSF PI SF SI * CO PTSD SMI * STU * HIVT STDT TBS MST HBT HCT LABT * PEER * TCC * SMON * CHLD YAD ADLT SNR * AH * VAPN * CDM COOT DEC FPSY IMR SEMP CM IPC SPS,31.45917362162162,-88.25884017297298
24,24,Clanton MI Outpatient,,110 Medical Center Drive,,Clanton,AL,35045,205-651-0077,,,,,SA MH SUMH * OP * OMH * ANTPYCH * AT CBT CFT DBT GT IDD IPT TELE * PEON * PVTN * CLF CMHG MC MD PI SCJJ SF SMHA * SS * STU * TBS * PEER * SMPD * CHLD YAD ADLT SNR * AH * VPPD * COOT FPSY SH VRS CM SPS,32.834218969656995,-86.64011062005277
25,25,WellStone Inc,,1909 Commerce Avenue NW,,Cullman,AL,35055,256-734-4688,256-255-1020,,,,SA MH SUMH * OP PHDT * CMHC * CHLOR FLUPH HALOP PERPH ARIPI CLOZA ILOPE LURAS OLANZ PALIP QUETI RISPE ZIPRA ANTPYCH * CBT DBT GT IDD IPT TELE AIM * CIT PEON PEOFF WI * LCCG * CLF CMHG CSBG FG MC MD MI PI SCJJ SEF SF SI SMHA SWFS * PA SS * SED SMI * STU * HS PEER * TCC * SMPD * CHLD YAD ADLT SNR * AH * VPPD * AOT COOT FPSY ICM PRS SH CM SPS,34.16670735305466,-86.81498542057878
26,26,East Pointe Hospital,,7400 Roper Lane,,Daphne,AL,36526,251-378-6500,251-450-2211,,,,SA MH SUMH * HI PHDT RES * PSY * CHLOR FLUPH HALOP LOXAP PERPH ARIPI CLOZA OLANZ OLANZF PALIP RISPE NRT ANTPYCH * CBT CFT DBT GT IDD IPT TELE AIM * CIT WI * PVTN * CMHG MC MD OSF PI SF SI * SE CO PTSD SMI * STU * HIVT STDT TBS MST HBT HCT LABT * PEER * TCC * SMON * YAD ADLT SNR * AH * VAPN * CDM COOT DEC FPSY IMR SEMP CM IPC SPS,30.6251952,-87.88711746122449
27,27,Health Connect America,,801 Church Street NE ,Suite 6,Decatur,AL,35601,256-274-8222,,,,,SA MH SUMH * OP * OMH * CBT CFT GT IDD IPT TELE * CIT * PVTP * MD PI SF SWFS * SS * TAY GL VET ADM CJ CO DV TRMA PED PEFP PTSD SED * STU * TCC * SMPD * CHLD YAD ADLT * AH * VPPD * FPSY TPC SPS,34.59314091548452,-86.99016746303697
28,28,MHCNCA Inc,Decatur Morgan Counseling Center,4110 U.S. Highway 31 South,,Decatur,AL,35603,256-260-1691,800-365-6008,256-355-5904,,,MH SUMH * OP PHDT * CMHC * FLUPH HALOP LOXAP PERPH ARIPI ASENA CARIP CLOZA ILOPE LURAS OLANZ PALIP QUETI RISPE ZIPRA ANTPYCH * CBT CFT GT IPT TELE AIM * CIT * PVTN * CLF CMHG CSBG MC MD OSF PI SF SI SMHA * TAY SE CJ CO SMI * STU * SMPD * YAD ADLT SNR * AH * VPPD * ACT COOT FPSY CM,34.549257029497355,-86.9871081521164
29,29,MHCNCA Inc,The Albany Clinic for Children,1315 13th Avenue SE,,Decatur,AL,35601,256-260-7306,256-355-5904,800-365-6008,,,MH SUMH * OP PHDT * CMHC * FLUPH HALOP LOXAP PERPH ARIPI ASENA CARIP CLOZA ILOPE LURAS OLANZ PALIP QUETI RISPE ZIPRA ANTPYCH * CBT CFT GT IPT TELE AIM * PVTN * CLF CMHG CSBG MD OSF PI SCJJ SF SI SMHA SWFS * CO SED * STU * PEER * SMON * CHLD * AH * VAPN * COOT FPSY CM,34.59314091548452,-86.99016746303697
30,30,Bryan W Whitfield Memorial Hosp Inc,Detox,105 U.S. Highway 80 East,,Demopolis,AL,36732,334-287-2815,334-212-2220,,,,SA MH SUMH * HI * CBHC IPSY * CHLOR DROPE FLUPH HALOP LOXAP PERPH ARIPI BREXP CARIP CLOZA OLANZ OLANZF PALIP QUETI RISPE ZIPRA NRT NSC ANTPYCH * AT CBT GT IPT TELE AIM * CIT PEON WI * LCCG PVTP * FQHC * CLF CMHG CSBG ITU MC MD MI OSF PI PCF SCJJ SF SI SMHA VAF * TAY SE GL VET ADM MF CJ CO HV TRMA TBI ALZ PEFP PTSD SMI * STU * HIVT STDT TBS MST HBT HCT LABT * TCC * SMON * YAD ADLT SNR * AH * VAPN * AOT CDM COOT IMR PRS CM IPC SPS ES,32.4972782152439,-87.84238547987805
31,31,West Alabama Mental Health Center,,1215 South Walnut Avenue,,Demopolis,AL,36732,334-289-2410,800-239-2901,,,,SA MH SUMH * OP * CMHC * FLUPH HALOP PERPH ARIPI ASENA BREXP CLOZA OLANZ PALIP QUETI RISPE ZIPRA ANTPYCH * AT CBT CFT GT IDD IPT TELE AIM * CIT WI * PVTN * CLF CMHG CSBG MC MD MI OSF PI SCJJ SF SI SMHA SWFS VAF * PA SS * CO SMI * HS * SMON * CHLD YAD ADLT SNR * AH * VAPN * COOT FPSY ICM SEMP SH CM SPS,32.4972782152439,-87.84238547987805
32,32,West Alabama Mental Health Center,,1401 U.S. Highway 80 East,,Demopolis,AL,36732,334-217-0010,800-239-2901,334-289-2410,,,MH * OP PHDT * RTCA * CBT GT IPT TELE * PVTN * CLF CMHG CSBG MC MD MI OSF PI SCJJ SF SI SMHA SWFS VAF * PA SS * CO SMI * PEER * SMON * YAD ADLT SNR * AH * VAPN * COOT ICM PRS SEMP SH CM SPS,32.4972782152439,-87.84238547987805
33,33,West Alabama Mental Health Center,Springhill Home,1304 Old Springhill Road,,Demopolis,AL,36732,334-289-3270,800-239-2901,334-289-2410,,,MH * RES * RTCA * FLUPH HALOP PERPH ARIPI ASENA BREXP CLOZA OLANZ PALIP QUETI RISPE ZIPRA ANTPYCH * AT CBT GT IDD IPT TELE AIM * PVTN * FQHC * CLF CMHG CSBG MC MD MI OSF PI SCJJ SF SI SMHA SWFS VAF * PA SS * SMI * HS PEER * SMON * YAD ADLT SNR * AH * VAPN * COOT ICM PRS SEMP SH CM SPS,32.4972782152439,-87.84238547987805
34,34,Central Alabama VA Healthcare System,Dothan Mental Health Clinic,3753 Ross Clark Circle,Suite 4,Dothan,AL,36303,334-503-7819 x47801,,334-503-7881 x47802,,,SA MH SUMH * OP * VAHC * CHLOR FLUPH HALOP LOXAP PERPH PIMOZ PROCH THIOT THIOR TRIFL ARIPI CLOZA LURAS OLANZ PALIP QUETI RISPE ZIPRA NRT NSC ANTPYCH * CBT CFT DBT GT IPT TELE * CIT WI * FED VAMC * FQHC * MI PI SF VAF * SE GL VET CJ CO HV DV TRMA TBI PTSD SMI * STU * HIVT STDT TBS MST LABT * HS PEER * TCC * SMON * YAD ADLT SNR * AH * VAPN * CDM DEC FPSY IMR LAD SEMP VRS IPC SPS ES,31.252052755040324,-85.40942699425403
35,35,Laurel Oaks Behavioral Health Center,,700 East Cottonwood Road,,Dothan,AL,36301,334-794-7373 x237,334-794-7373,866-320-3613,,,MH SUMH * HI RES * PSY * CHLOR HALOP OLANZ ANTPYCH * AT CBT CFT DBT GT IDD IPT * WI * PVTP * CLF MD MI OSF PI SCJJ SEF SF SI SMHA SWFS VAF * MF TRMA PTSD SED * LABT * HS * SMON * CHLD * AH SP * VAPN * CDM FPSY ICM PRS CM IPC SPS ES,31.18645965350993,-85.40209919324504
36,36,Southeast Alabama Medical Center,Behavioral Medicine Center,1108 Ross Clark Circle,Suite 702,Dothan,AL,36301,334-793-8111 x5482,334-793-8800,,,,SA MH * HI OP * IPSY * CHLOR HALOP ARIPI OLANZ PALIP QUETI RISPE ZIPRA NSC ANTPYCH * AT DBT GT IPT * PEON * PVTN * MC MD MI PI SCJJ SF SI VAF * TAY SE GL VET ADM MF CJ CO HV TRMA ALZ PED PTSD SMI * STU * SMON * YAD ADLT SNR * VAPN * COOT CM ES,31.18645965350993,-85.40209919324504
37,37,SpectraCare,Middleton RSC Home,2694 South Park Avenue,,Dothan,AL,36301,334-792-3202,,,,,SA MH * RES * RTCA * CHLOR HALOP ARIPI CLOZA OLANZ QUETI RISPE ANTPYCH * AT CBT GT IPT * PVTN * MC MD PI SF SI * HS * SMPD * YAD ADLT SNR * VPPD * COOT DEC CM ES,31.18645965350993,-85.40209919324504
38,38,SpectraCare Health Systems,Adult Outpatient Program,1672 Columbia Highway,,Dothan,AL,36302,800-951-4357,,,,,SA MH SUMH * OP * CMHC * CHLOR FLUPH PERPH ARIPI ASENA BREXP CARIP CLOZA ILOPE OLANZ PALIP QUETI RISPE ZIPRA ANTPYCH * CBT CFT GT IDD IPT TELE * CIT PEON WI * PVTN * CLF CMHG MC MD MI OSF PI SF SMHA SWFS VAF * SS * SE VET ADM MF CJ CO TRMA PED PTSD SMI * STU * PEER * SMPD * YAD ADLT SNR * AH * VPPD * ACT COOT FPSY ICM PRS SH CM SPS,31.25182445,-85.36387615
39,39,SpectraCare Health Systems,Childrens Outpatient Services,440 Honeysuckle Road,,Dothan,AL,36305,334-712-2720,,,,,MH * OP * CMHC * CHLOR FLUPH HALOP PERPH ARIPI ASENA BREXP CARIP CLOZA ILOPE LURAS OLANZ PALIP QUETI RISPE ZIPRA NRT NSC ANTPYCH * CBT GT IPT TELE * CIT PEON * PVTN * CMHG MD MI PI SF SI * PA SS * TAY MF TRMA PEFP PTSD SED * STU * PEER * TCC * SMPD * CHLD YAD * AH SP * VPPD * FPSY CM SPS,31.221576263179916,-85.46839542635983
40,40,SpectraCare Health Systems,Houston County Day Treatment,134 Prevatt Road,,Dothan,AL,36303,800-951-4357,,,,,MH SUMH * OP * CMHC * CHLOR FLUPH HALOP PERPH ARIPI ASENA BREXP CARIP CLOZA ILOPE LURAS OLANZ PALIP QUETI RISPE ZIPRA ANTPYCH * CBT CFT DBT GT IDD IPT TELE * PEON * PVTN * CLF CMHG MC MD MI OSF PI SF SMHA * SS * SE CO SMI * SMPD * YAD ADLT SNR * AH * VPPD * ACT FPSY PRS VRS CM ES,31.252052755040324,-85.40942699425403
41,41,SpectraCare Health Systems,Intermediate Care Home,140 Prevatt Road,,Dothan,AL,36301,334-793-4020,334-794-0731,,,,MH * PHDT RES * CMHC * CHLOR FLUPH HALOP PERPH ARIPI ASENA BREXP CARIP CLOZA ILOPE LURAS OLANZ PALIP QUETI RISPE ZIPRA ANTPYCH * CBT GT IPT TELE * PEON * PVTN * CMHG MC MD PI SF * SE VET ALZ SMI * SMPD * YAD ADLT SNR * AH * VPPD * CDM DEC FPSY IMR,31.18645965350993,-85.40209919324504
42,42,Wiregrass Wellness Center,,201 Regency Court,,Dothan,AL,36305,334-673-8869,,,,,SA MH SUMH * OP * OMH * NRT NSC * AT CBT CRT CFT DBT GT IDD IPT TMS TELE AIM * PEON WI * PVTP * MC MD PI SF SI SMHA * TAY SE GL VET ADM MF CJ CO HV DV TRMA TBI ALZ PED PEFP PTSD SED SMI * STU * PEER * TCC * SMPD * CHLD YAD ADLT SNR * AH SP FX * F28 * VPPD * ACT AOT CDM COOT DEC FPSY ICM IMR PRS CM SPS ES,31.221576263179916,-85.46839542635983
43,43,Mountain Lakes Behav Healthcare,Sue Bolt Foster Home,4884 Alabama Highway 40,,Dutton,AL,35744,256-228-3361,256-259-1774,,,,SA MH SUMH * OP RES * CHLOR HALOP ARIPI CLOZA OLANZ OLANZF QUETI RISPE NSC ANTPYCH * AT CBT GT IDD IPT * PVTN * MC MD SF SMHA * SE GL CO DV TRMA ALZ PTSD SMI * STU * TBS * SMPD * ADLT SNR * VPPD * COOT FPSY PRS CM,34.6024297,-85.90915955714286
44,44,Mountain Lakes Resid Care Home,,4886 Alabama Highway 40,,Dutton,AL,35744,256-228-9061,256-259-1774,,,,SA MH SUMH * OP RES * CHLOR HALOP ARIPI CLOZA OLANZ OLANZF QUETI RISPE NSC ANTPYCH * AT CBT GT IDD IPT * PVTN * MC MD SF SMHA * TAY SE GL CJ CO DV TRMA PTSD SMI * STU * TBS * SMPD * YAD ADLT SNR * AH * VPPD * COOT FPSY PRS CM,34.6024297,-85.90915955714286
45,45,South Central Alabama MHC,Coffee Cnty Mental Health Center,2861 Neal Metcalf Road,,Enterprise,AL,36330,334-347-0212,877-530-0002,,,,SA MH SUMH * OP PHDT * CMHC * FLUPH HALOP PERPH THIOT THIOR TRIFL ARIPI ASENA BREXP CARIP CLOZA LURAS OLANZ OLANZF PALIP QUETI RISPE ZIPRA ANTPYCH * AT CBT CFT GT IPT TELE AIM * CIT PEON PEOFF WI * PVTN * CMHG MC MD MI PI SF SMHA SWFS VAF * PA SS * SE SMI * STU * TBS MST LABT * SMOP * YAD ADLT SNR * AH * VAPP * COOT FPSY PRS SH CM SPS,31.350568629104476,-85.86742134104477
46,46,SpectraCare Health Systems,Barbour County Clinic,133 North Orange Avenue,,Eufaula,AL,36027,800-951-4357,,,,,SA MH SUMH * OP * CMHC * CHLOR FLUPH HALOP PERPH ARIPI ASENA BREXP CARIP CLOZA LURAS OLANZ PALIP QUETI RISPE ZIPRA NRT NSC ANTPYCH * CBT CFT GT IDD IPT TELE * PEON WI * PVTN * CLF CMHG MC MD MI OSF PI SCJJ SF SMHA SWFS VAF * SS * TAY SE GL VET ADM MF CJ CO HV ALZ PTSD SED SMI * STU * TCC * SMPD * CHLD YAD ADLT SNR * AH * VPPD * ACT COOT DEC FPSY ICM IMR PRS SH CM SPS ES,31.88607690088889,-85.16753752977777
47,47,West Alabama Mental Health Center,Greene County,301 Prairie Avenue,,Eutaw,AL,35462,205-372-3106,800-239-2901,334-289-2410,,,SA MH SUMH * OP * CMHC * FLUPH HALOP PERPH ARIPI ASENA BREXP CLOZA OLANZ PALIP QUETI RISPE ZIPRA ANTPYCH * AT CBT CFT GT IDD IPT TELE AIM * CIT * PVTN * CLF CMHG CSBG MC MD MI OSF PI SCJJ SF SI SMHA SWFS VAF * PA SS * CO SMI * HS * SMON * CHLD YAD ADLT SNR * AH * VAPN * COOT FPSY ICM SEMP SH CM SPS,32.79583918333333,-87.87876999230768
48,48,Health Connect America,,115 Fairground Road,,Florence,AL,35630,256-712-2822,,,,,SA MH SUMH * OP * OMH * AT CBT CFT DBT EMDR GT IDD IPT TELE * PVTP * CLF MD OSF PI SF * TAY VET ADM TRMA PTSD * STU * PEER * TCC * SMPD * CHLD YAD ADLT SNR * AH * VPPD * COOT FPSY TPC CM SPS ES,34.818332457586706,-87.66256124450867
49,49,Southern Wellness Services,,2618 Hough Road,,Florence,AL,35630,256-284-7080,,,,,SA MH SUMH * OP * OMH * CBT DBT IPT * PVTP * FQHC * MD PI SF SMHA * TBS * SMPD * CHLD YAD ADLT SNR * VPPD,34.818332457586706,-87.66256124450867
50,50,Cherokee Etowah Dekalb CMHC,Dekalb County Office,301 14th Street NW,,Fort Payne,AL,35967,256-845-4571,,,,,SA MH SUMH * OP * CMHC * ARIPI ASENA BREXP CARIP CLOZA ILOPE LURAS OLANZ PALIP QUETI RISPE ZIPRA ANTPYCH * CBT CFT DBT GT IDD IPT TELE AIM * CIT WI * PVTN * CLF CMHG MC MD MI PI SCJJ SEF SF SI SMHA SWFS VAF * SS * CO SED SMI * PEER * SMPD * CHLD YAD ADLT SNR * AH * VPPD * COOT FPSY ICM TPC CM SPS,34.441420988161205,-85.70595615944585
51,51,DeKalb Regional Medical Center,,200 Medical Center Drive SW,,Fort Payne,AL,35968,256-845-3150 x2725,256-997-2725,256-845-3150 x2732,,,MH * HI * IPSY * CHLOR HALOP LOXAP ARIPI ASENA CARIP CLOZA LURAS OLANZ PALIP QUETI RISPE ZIPRA NRT NSC ANTPYCH * AT GT IPT TELE * PVTP * CLF CMHG CSBG FG ITU MC MD MI OSF PI PCF SCJJ SEF SF SI SMHA SWFS VAF * SE ALZ * STU * HIVT STDT TBS MST HBT HCT LABT * HS * TCC * SMON * SNR * AH * VAPN * DEC FPSY PRS CM IPC SPS ES,34.46849424827587,-85.76447722758621
52,52,Frantz Therapeutic Residential Home,Frantz Home,1038 McDuffie Street,,Gadsden,AL,35901,256-543-2883,,,,,SA MH SUMH * RES * RTCA * ARIPI ASENA BREXP CARIP CLOZA ILOPE LURAS OLANZ PALIP QUETI RISPE ZIPRA ANTPYCH * AT CBT CFT DBT GT IDD IPT TELE AIM * CIT * PVTN * CMHG MC MD MI PI SF SI SMHA VAF * CJ CO SMI * STU * TBS * HS * TCC * SMPD * CHLD YAD ADLT SNR * AH * VPPD * COOT DEC FPSY PRS VRS CM SPS ES,34.017512545596595,-85.98453648451705
53,53,Riverview Regional Medical Center,Senior Heights,600 South 3rd Street,,Gadsden,AL,35901,256-543-5200,256-543-5721,256-543-5200 x5641,,,MH * HI * IPSY * CHLOR FLUPH HALOP PERPH PROCH ARIPI CLOZA OLANZ QUETI RISPE ZIPRA NRT NSC ANTPYCH * AT CBT GT IPT AIM * PEON * PVTP * MC MD MI PI SF VAF * SE GL VET MF ALZ PTSD * STU * HIVT STDT MST HBT HCT LABT * TCC * SMON * SNR * AH * VAPN * CDM DEC ICM CM IPC SPS,34.017512545596595,-85.98453648451705
54,54,SpectraCare Health Systems,Geneva County Clinic,1203 West Maple Avenue,,Geneva,AL,36340,800-951-4357,,,,,SA MH SUMH * OP * CMHC * CHLOR FLUPH HALOP PERPH ARIPI ASENA BREXP CARIP CLOZA ILOPE LURAS OLANZ PALIP QUETI RISPE ZIPRA NRT NSC ANTPYCH * CBT CFT GT IDD IPT TELE * CIT PEON WI * PVTN * CLF CMHG MC MD MI PI SF SI SMHA * SS * TAY SE GL VET ADM MF CJ CO HV TRMA PTSD SED SMI * STU * PEER * TCC * SMPD * CHLD YAD ADLT SNR * AH * VPPD * ACT COOT DEC FPSY ICM IMR PRS CM SPS ES,31.03046937419355,-85.88531549354838
55,55,West Alabama Mental Health Center,Hale County Office,401 1st Street,,Greensboro,AL,36744,334-624-4905,800-239-2901,334-289-2410,,,SA MH SUMH * OP * CMHC * FLUPH HALOP PERPH PIMOZ PROCH THIOT THIOR TRIFL ARIPI ASENA BREXP CLOZA OLANZ PALIP QUETI RISPE ZIPRA ANTPYCH * AT CBT CFT GT IDD IPT TELE AIM * CIT * PVTN * CLF CMHG CSBG ITU MC MD MI OSF PI SCJJ SF SI SMHA SWFS VAF * PA SS * CO SMI * HS * SMON * CHLD YAD ADLT SNR * AH * VAPN * COOT FPSY ICM SEMP SH CM SPS,32.70266414132841,-87.59559191365314
56,56,South Central Alabama MHC,Butler County Mental Health Center,185 Industrial Parkway,,Greenville,AL,36037,334-382-2018,877-530-0002,,,,MH SUMH * OP PHDT * CMHC * FLUPH HALOP PERPH THIOT THIOR TRIFL ARIPI ASENA BREXP CARIP CLOZA LURAS OLANZ OLANZF PALIP QUETI RISPE ZIPRA ANTPYCH * AT CBT CFT GT IPT TELE AIM * CIT PEON PEOFF WI * PVTN * MC MD MI PI SF SMHA SWFS VAF * PA SS * SE SMI * STU * TBS MST LABT * SMOP * YAD ADLT SNR * AH * VAPP * COOT FPSY PRS SH CM SPS,31.82434896564103,-86.62045046615386
57,57,South Central Alabama MHC,Green House Behavioral Group Home,674 Hardscramble Road,,Greenville,AL,36037,334-382-1645,,,,,MH SUMH * RES * RTCA * FLUPH HALOP PERPH THIOT THIOR TRIFL ARIPI ASENA BREXP CARIP CLOZA LURAS OLANZ OLANZF PALIP QUETI RISPE ZIPRA ANTPYCH * AT CBT CFT GT IPT AIM * PVTN * MD * PA SS * SMI * STU * TBS MST LABT * SMOP * YAD ADLT SNR * AH * VAPP * COOT FPSY PRS SPS,31.82434896564103,-86.62045046615386
58,58,South Central Alabama MHC,Stepping Stones - Butler County,680 Hardscramble Road,,Greenville,AL,36037,334-382-2353,877-530-0002,,,,MH SUMH * OP PHDT * CMHC * FLUPH HALOP PERPH THIOT THIOR TRIFL ARIPI ASENA BREXP CARIP CLOZA LURAS OLANZ OLANZF PALIP QUETI RISPE ZIPRA ANTPYCH * AT CBT CFT GT IPT TELE AIM * CIT PEON PEOFF WI * PVTN * MD MI PI SF SMHA SWFS * PA SS * SED SMI * STU * TBS MST LABT * SMOP * CHLD YAD ADLT SNR * AH * VAPP * COOT FPSY ICM PRS CM,31.82434896564103,-86.62045046615386
59,59,Marshall Medical Centers North,Behavioral Health Unit,8000 Alabama Highway 69,,Guntersville,AL,35976,256-571-8722,,256-571-8102,,,MH SUMH * HI * IPSY * CHLOR FLUPH HALOP LOXAP PERPH THIOT THIOR TRIFL ARIPI CLOZA OLANZ QUETI RISPE ZIPRA NRT ANTPYCH * AT CBT CFT GT IDD IPT AIM * CIT PEON WI * PVTN * CLF MC MD MI OSF PI SCJJ SF SI SMHA VAF * SE CO SMI * STU * HS * TCC * SMON * YAD ADLT * AH SP * VAPN * COOT DEC FPSY IMR LAD PRS SH CM IPC SPS ES,34.34664070126382,-86.3182600507109
60,60,Mountain Lakes Behavioral Healthcare,,2409 Homer Clayton Drive,,Guntersville,AL,35976,256-582-3203,,800-209-0049,,,MH SUMH * OP PHDT * CMHC * HALOP CLOZA OLANZ OLANZF PALIP QUETI RISPE ZIPRA ANTPYCH * AT CBT CFT DBT GT IDD IPT TELE * CIT * PVTN * CLF MC MD MI PI SF SMHA * PA SS * TAY SE SED SMI * HS PEER * SMPD * CHLD YAD ADLT SNR * AH * VAPP * ACT COOT FPSY ICM SH CM SPS ES,34.34664070126382,-86.3182600507109
61,61,Northwest Alabama Mental Health Ctr,,71 Carraway Drive,,Haleyville,AL,35565,205-486-4111,,800-489-3974,,,SA MH SUMH * OP * OMH * ANTPYCH * AT CBT GT IDD IPT TELE AIM * CIT PEOFF * PVTN * FQHC * MC MD PI SF * SS * CO SMI * STU * PEER * SMPD * CHLD YAD ADLT SNR * AH * VPPD * COOT CM SPS ES,34.22962354944238,-87.60921294684015
62,62,Care Clinic,,600 Boulevard South SW,,Huntsville,AL,35802,844-782-6963,,,,,SA MH SUMH * OP * OMH * HALOP ARIPI OLANZ QUETI RISPE NRT ANTPYCH * IDD TELE * PVTP * PI SF * YAD ADLT SNR,34.66858719593148,-86.55594421306209
63,63,Huntsville Hospital,,101 Sivley SW Road,,Huntsville,AL,35801,256-265-8123,,,,,MH * HI * IPSY * CHLOR HALOP PROCH ARIPI ASENA BREXP CARIP CLOZA ILOPE LURAS OLANZ PALIP QUETI RISPE ZIPRA NRT ANTPYCH * CBT ECT GT IPT * PEON WI * PVTN * CLF MC MD MI PI SF SI VAF * STU * HIVT STDT MST LABT * TCC * SMON * ADLT SNR * VAPN * CDM CM SPS ES,34.727907965980634,-86.57215327324455
64,64,Pinnacle Behavioral Health,Intensive Outpatient Program,4812 Commerical Drive NW,,Huntsville,AL,35816,256-518-9998,,,,,SA MH SUMH * OP PHDT * OMH * CBT CFT GT IDD IPT TELE * PVTP * PI SF * CO TRMA SED * STU * TCC * SMON * CHLD * VAPN * FPSY CM SPS,34.73902273721804,-86.62552071428571
65,65,Synergy Wellness,,7105B Bailey Creek Circle,,Huntsville,AL,35802,256-759-9167,,,,,SA MH * OP * OMH * NRT NSC * PVTP * MC PI SF * STU * MST LABT * TCC * SMON * CHLD YAD ADLT SNR * VAPN * CDM DEC IMR IPC SPS,34.66858719593148,-86.55594421306209
66,66,WellStone Inc,,4040 Memorial Parkway SW,,Huntsville,AL,35802,256-533-1970,256-705-6444,,,,SA MH SUMH * OP PHDT * CMHC * CHLOR FLUPH HALOP ARIPI ASENA BREXP CARIP CLOZA ILOPE LURAS OLANZ PALIP QUETI RISPE ZIPRA NRT ANTPYCH * CBT CFT GT IDD IPT TELE AIM * CIT PEON PEOFF WI * LCCG * CLF CMHG FG MC MD MI PI SCJJ SF SI SMHA SWFS * SS * CJ CO PEFP SED SMI * STU * TBS * HS PEER * TCC * SMPD * CHLD YAD ADLT SNR * AH * VPPD * ACT AOT COOT FPSY ICM LAD PRS SH CM IPC SPS,34.66858719593148,-86.55594421306209
67,67,WellStone Inc,Nova Center for Youth and Family,1900 Golf Road SW,,Huntsville,AL,35802,256-489-2980,256-705-6444,,,,SA MH SUMH * OP PHDT * MSMH * CHLOR FLUPH HALOP LOXAP PERPH PIMOZ PROCH THIOT THIOR TRIFL CLOZA LURAS OLANZ OLANZF RISPE ANTPYCH * AT CBT CFT DBT GT IDD IPT TELE * CIT WI * PVTN * CMHG MC MD MI PI SCJJ SF SI SMHA SWFS * SS * CJ CO PEFP * STU * SMPD * CHLD YAD * COOT FPSY ICM LAD PRS CM SPS ES,34.66858719593148,-86.55594421306209
68,68,Health Connect America,,1700 5th Avenue South,,Jasper,AL,35501,205-530-6007,,,,,SA MH SUMH * OP * OMH * CBT CFT GT IDD IPT TELE * CIT * PVTP * MD PI SF SWFS * SS * CO * TCC * SMON * CHLD YAD ADLT SNR * AH * VAPN * FPSY TPC SPS,33.824506998241205,-87.26339410904524
69,69,West Alabama Mental Health Center,Sumter County,110 Hospital Drive,Suite 101,Livingston,AL,35470,205-652-6731,800-239-2901,334-289-2410,,,SA MH SUMH * OP * CMHC * FLUPH HALOP PERPH ARIPI ASENA BREXP CLOZA OLANZ PALIP QUETI RISPE ZIPRA ANTPYCH * AT CBT CFT GT IDD IPT TELE AIM * CIT * PVTN * CLF CMHG CSBG MC MD MI OSF PI SCJJ SF SI SMHA SWFS VAF * PA SS * CO SMI * HS PEER * SMON * CHLD YAD ADLT SNR * AH * VAPN * COOT FPSY ICM SEMP SH CM SPS,32.578956596875,-88.1661427546875
70,70,Beacon Behavioral Health,,150 Hospital Drive,,Luverne,AL,36049,334-335-5040,334-319-8724,,,,MH * HI * PSY * HALOP ARIPI ASENA LURAS OLANZ PALIP QUETI RISPE ZIPRA NRT NSC ANTPYCH * CBT DBT GT IDD IPT TELE AIM * CIT PEON WI * PVTP * ITU MD MI PI SF SWFS * GL MF DV TRMA PEFP PTSD SED * STU * HIVT STDT TBS MST HBT HCT LABT * TCC * SMON * CHLD * AH * VAPN * CDM DEC FPSY ICM IMR PRS CM IPC SPS ES,31.72969601037736,-86.2715036735849
71,71,Crenshaw Community Hospital,Special Sevices Unit,101 Hospital Circle,,Luverne,AL,36049,334-335-1175,334-335-1194,,,,SA MH SUMH * HI * IPSY * CHLOR FLUPH HALOP PERPH THIOR ARIPI CLOZA LURAS OLANZ PALIP QUETI RISPE ZIPRA NRT NSC ANTPYCH * AT CFT GT IDD IPT TELE AIM * PEON WI * PVTN * ITU MC MD MI PI SF SI SMHA VAF * SE GL VET ADM MF CJ CO HV TRMA TBI PED PTSD SMI * STU * MST LABT * TCC * SMPD * YAD ADLT * VPPD * CDM COOT FPSY IMR PRS CM IPC SPS ES,31.72969601037736,-86.2715036735849
72,72,South Central Alabama MHC,Crenshaw County Mental Health Center,587 Bentley Avenue,,Luverne,AL,36049,334-335-5201,877-530-0002,,,,MH SUMH * OP PHDT * CMHC * FLUPH HALOP PERPH THIOT THIOR TRIFL ARIPI ASENA BREXP CARIP CLOZA LURAS OLANZ OLANZF PALIP QUETI RISPE ZIPRA ANTPYCH * AT CBT CFT GT IPT TELE AIM * CIT PEON PEOFF WI * PVTN * MC MD MI PI SF SMHA SWFS VAF * PA SS * SE SED SMI * STU * TBS MST LABT * SMOP * CHLD YAD ADLT SNR * AH * VAPP * COOT FPSY PRS SH CM SPS,31.72969601037736,-86.2715036735849
73,73,South Central Alabama MHC,Graceland/3 Bed Group Home,5590 Hank Williams Road,,McKenzie,AL,36456,334-222-2525 x70339,,,,,MH SUMH * RES * RTCA * FLUPH HALOP PERPH THIOT THIOR TRIFL ARIPI ASENA BREXP CARIP CLOZA LURAS OLANZ OLANZF PALIP QUETI RISPE ZIPRA ANTPYCH * AT CBT CFT GT IPT AIM * PVTN * MD SF SMHA * PA SS * SMI * STU * TBS MST LABT * SMOP * YAD ADLT SNR * AH * VAPP * COOT FPSY PRS SPS,31.54219502692308,-86.72638443461538
74,74,AltaPointe Health Systems Inc,BayPointe Hospital,5800 Southland Drive,,Mobile,AL,36693,251-661-0153,251-450-2211,,,,SA MH SUMH * HI PHDT RES * PSY * CHLOR FLUPH HALOP LOXAP PERPH ARIPI CLOZA OLANZ OLANZF PALIP RISPE NRT ANTPYCH * CBT CFT DBT GT IDD IPT TELE AIM * CIT WI * PVTN * CMHG MD PI SF * SED * STU * MST LABT * SMON * CHLD * AH * VAPN * COOT FPSY CM SPS,30.63154245316456,-88.15849492172995
75,75,CCBHC at Vets Recover,,1156 Springhill Avenue,,Mobile,AL,36604,251-405-3677,,,,,SA MH SUMH * OP * OMH * CBT CFT GT IDD IPT TELE * CIT WI * PVTN * CMHG CSBG MD MI PI SF VAF * PA SS * VET ADM MF CJ PTSD * MST * HS PEER * TCC * SMPD * CHLD YAD ADLT SNR * VPPD * ACT COOT FPSY SEMP SH CM IPC SPS ES,30.68380212079208,-88.06057489821782
76,76,Baptist Medical Center South,Crossbridge Behavioral Health,4385 Narrow Lane Road,,Montgomery,AL,36116,334-286-5360,334-286-2493,334-286-2492,,,SA MH SUMH * HI * IPSY * NRT NSC ANTPYCH * AT CBT CFT DBT GT IDD IPT AIM * PVTN * MC MD MI PI SF SI SMHA SWFS * TAY SE ALZ SMI * STU * MST LABT * TCC * SMON * CHLD YAD ADLT SNR * AH * VAPN * COOT FPSY CM SPS,32.31732344134276,-86.21588914991166
77,77,Central Alabama VA Healthcare System,West Campus,215 Perry Hill Road,,Montgomery,AL,36109,334-272-4670 x35540,,334-272-4670 x35539,,,SA MH SUMH * OP * VAHC * CHLOR FLUPH HALOP LOXAP PERPH PIMOZ PROCH THIOT THIOR TRIFL ARIPI CLOZA LURAS OLANZ PALIP QUETI RISPE ZIPRA NRT NSC ANTPYCH * CBT CFT DBT GT IPT TELE * CIT PEON WI * FED VAMC * FQHC * MI PI SF VAF * SE GL VET CJ CO HV DV TRMA TBI PTSD SMI * STU * HIVT STDT TBS MST LABT * HS PEER * TCC * SMON * YAD ADLT SNR * AH * VAPN * ACT CDM DEC FPSY IMR LAD PRS SEMP VRS CM IPC SPS ES,32.3852974075,-86.24176480068182
78,78,Lawrence County,Adult CM,295 Hospital Street,,Moulton,AL,35650,256-974-6697,256-355-5904,,,,MH * OP * CMHC * PVTN * CLF CMHG CSBG MC MD OSF PI SF SI SMHA * TAY SE CO SMI * SMPD * YAD ADLT SNR * AH * VPPD * COOT FPSY ICM CM,34.495133526837066,-87.27853698019169
79,79,Lawrence County,Adult Outpatient,295 Hospital Street,,Moulton,AL,35650,256-974-6697,256-355-5904,,,,MH * OP PHDT * CMHC * FLUPH HALOP LOXAP PERPH ARIPI ASENA BREXP CLOZA ILOPE LURAS OLANZ QUETI RISPE ZIPRA ANTPYCH * CBT CFT GT IPT * PVTN * CLF CMHG CSBG MC MD OSF PI SF SI SMHA * TAY SE CJ CO SMI * SMPD * YAD ADLT SNR * AH * VPPD * COOT FPSY CM,34.495133526837066,-87.27853698019169
80,80,Lawrence County,Child and Adol CM/Hourly Services,295 Hospital Street,,Moulton,AL,35650,256-974-6697,256-355-5904,,,,MH * OP * CMHC * PVTN * CLF CMHG CSBG MC MD OSF PI SF SI SMHA SWFS * CO SED * SMPD * CHLD * AH * VPPD * COOT FPSY ICM CM,34.495133526837066,-87.27853698019169
81,81,MHCNCA Inc,Moulton Lawrence Counseling Center,295 Hospital Street,,Moulton,AL,35650,256-974-6697,256-355-5904,,,,MH SUMH * OP PHDT * CMHC * FLUPH HALOP LOXAP PERPH ARIPI ASENA CARIP CLOZA ILOPE LURAS OLANZ PALIP QUETI RISPE ZIPRA ANTPYCH * CBT CFT GT IPT TELE AIM * PVTN * CLF CMHG CSBG MC MD OSF PI SF SI SMHA * TAY SE CJ CO SED SMI * STU * PEER * SMPD * CHLD YAD ADLT SNR * AH * VPPD * COOT FPSY CM,34.495133526837066,-87.27853698019169
82,82,Northport Medical Center,North Harbor Psych Pavillion,2700 Hospital Drive,,Northport,AL,35476,205-330-3101,205-330-3838,,,,MH * HI * IPSY * CHLOR FLUPH HALOP ARIPI ASENA BREXP CLOZA ILOPE LURAS PALIP QUETI RISPE ZIPRA NRT NSC ANTPYCH * AT CBT CFT DBT EMDR GT IPT TELE AIM * PEON WI * PVTN * MC MD MI PI SF SI SMHA VAF * SE ALZ * STU * HIVT STDT MST LABT * TCC * SMON * YAD ADLT SNR * AH * VAPN * COOT DEC CM IPC ES,33.229546705069126,-87.58321247004608
83,83,Eastside CMHC,Blount County CMHC,1002 2nd Avenue East,,Oneonta,AL,35121,205-628-3882,205-625-3882,,,,MH * OP * CMHC * HALOP ARIPI OLANZ QUETI RISPE ANTPYCH * CFT GT IPT TELE * PVTN * CLF CMHG MC MD OSF PI SF SI SMHA * SS * TAY SE CO SED SMI * STU * TCC * SMPD * CHLD YAD ADLT SNR * AH * VPPD * COOT FPSY IMR,33.940363124612404,-86.45508414806201
84,84,East Alabama Medical Center,Department of Psychiatric Medicine,2000 Pepperell Parkway,,Opelika,AL,36801,334-528-1010 x4198,334-528-4820,,,,MH SUMH * HI * IPSY * NRT ANTPYCH * AT CBT CFT GT IPT * CIT WI * PVTN * CMHG MC MD MI OSF PI SEF SF SI SMHA VAF * SED SMI * STU * MST LABT * TCC * SMON * CHLD YAD ADLT * AH * VAPN * COOT DEC FPSY SPS ES,32.649625933658534,-85.39167296813008
85,85,East Alabama Mental Health Center,Family and Childrens Services Center,2300 Center Hill Drive,Building 2,Opelika,AL,36801,334-742-2112,334-742-2877,,,,SA MH SUMH * OP * CMHC * ARIPI OLANZ QUETI RISPE ANTPYCH * CBT CFT GT IDD IPT TELE * CIT PEON * PVTN * CLF CMHG CSBG MD OSF PI SEF SF SMHA * GL MF CO TRMA PEFP PTSD SED * STU * PEER * SMPD * CHLD YAD * AH SP * VPPD * FPSY ICM CM SPS ES,32.649625933658534,-85.39167296813008
86,86,Mizell Memorial Hospital,,702 North Main Street,Senior Care Behavioral Unit,Opp,AL,36467,334-493-9134 x2111,334-493-9134,,,,MH SUMH * HI * IPSY * CHLOR FLUPH HALOP PROCH ARIPI OLANZ PALIP QUETI RISPE ZIPRA NRT ANTPYCH * AT CBT DBT GT IPT TELE AIM * PEON * PVTN * MC MD MI PI SF SI VAF * SE VET CO TBI ALZ PED PEFP PTSD * STU * HIVT STDT TBS MST HBT HCT LABT * TCC * SMON * ADLT SNR * AH * VAPN * CDM COOT DEC IMR PRS VRS CM SPS ES,31.279912605612243,-86.25780659387756
87,87,Sequel TSI Owens Cross Roads,,318 Hamer Road,,Owens Cross Roads,AL,35763,256-725-7170,,,,,MH SUMH * RES * RTCC * CBT DBT GT IPT * PVTP * MD * GL CO TRMA PTSD * SMON * CHLD YAD * VAPN * ES,34.64104455145228,-86.46901669751037
88,88,Dale Medical Center,New Day Psychiatric Unit,126 Hospital Avenue,,Ozark,AL,36360,334-774-7352,,334-774-2601 x1090,,,MH SUMH * HI * IPSY * CHLOR FLUPH HALOP PERPH ARIPI BREXP CARIP CLOZA ILOPE LURAS OLANZ PALIP QUETI RISPE ZIPRA NRT ANTPYCH * AT CBT CFT ECT GT IDD IPT AIM * PEON * PVTP * MC MD MI PI SF SMHA VAF * SE GL VET ADM MF CJ CO HV DV TRMA ALZ PED PEFP PTSD SMI * STU * MST LABT * TCC * SMON * YAD ADLT SNR * AH * VAPN * COOT,31.43478663697917,-85.645861940625
89,89,SpectraCare Health Systems,Dale County/Clinic and Day Treatment,134 Katherine Avenue,,Ozark,AL,36360,800-951-4357,,,,,SA MH SUMH * OP * CMHC * CHLOR FLUPH HALOP PERPH ARIPI ASENA BREXP CARIP CLOZA ILOPE LURAS OLANZ PALIP QUETI RISPE ZIPRA ANTPYCH * CBT CFT DBT GT IDD IPT TELE * PEON * PVTN * CLF CMHG MC MD MI OSF PI SF SMHA VAF * SS * TAY SE CO SED SMI * TCC * SMPD * CHLD YAD ADLT SNR * AH * VPPD * ACT COOT DEC FPSY PRS SH VRS CM SPS,31.43478663697917,-85.645861940625
90,90,Central Alabama Wellness,,2100 County Services Drive,,Pelham,AL,35124,205-651-0077,,,,,SA MH SUMH * OP * CMHC * ANTPYCH * CBT CFT DBT GT IDD IPT TELE AIM * CIT WI * PVTN * CLF CMHG CSBG MC MD MI OSF PI SCJJ SEF SF SI SMHA SWFS * SS * SED SMI * STU * PEER * SMPD * CHLD YAD ADLT SNR * AH * VPPD * COOT FPSY IMR SEMP CM,33.31783619141631,-86.7932902944206
91,91,Eastside CMHC,Saint Clair County CMHC,625 15th Street North,,Pell City,AL,35125,205-338-7525,,,,,MH * OP * CMHC * HALOP ARIPI OLANZ QUETI RISPE ANTPYCH * CFT GT IPT TELE * PVTN * CLF CMHG MC MD OSF PI SF SI SMHA * SS * TAY SE CO SED SMI * STU * TCC * SMPD * CHLD YAD ADLT SNR * AH * VPPD * COOT FPSY IMR,33.5964092914557,-86.29811392120253
92,92,Birmingham VAMC,Gadsden Clinic,206 Rescia Avenue,,Rainbow City,AL,35906,256-413-7154,,,,,SA MH SUMH * OP * VAHC * FLUPH HALOP PERPH THIOT ARIPI CARIP LURAS OLANZ PALIP QUETI RISPE ZIPRA NRT NSC ANTPYCH * CBT GT IPT TELE * CIT PEOFF WI * FED VAMC * MC MI PI VAF * VET * STU * HIVT STDT TBS MST HBT HCT * PEER * TCC * SMON * YAD ADLT SNR * AH * VAPN * DEC FPSY ICM IPC SPS,33.941888586507936,-86.06227323690476
93,93,SpectraCare Health Systems,Geneva County Day Treatment,10386 West State Highway 52,,Samson,AL,36477,800-951-4357,,,,,MH SUMH * PHDT * CMHC * CHLOR FLUPH HALOP PERPH ARIPI ASENA BREXP CARIP CLOZA ILOPE LURAS OLANZ PALIP QUETI RISPE ZIPRA ANTPYCH * CBT CFT GT IDD IPT TELE * PEON * PVTN * CLF CMHG MC MD MI OSF PI SF SMHA * SS * SE CO SMI * STU * SMPD * YAD ADLT SNR * AH * VPPD * CDM COOT FPSY IMR PRS CM SPS,31.109876385714287,-86.05190520816326
94,94,Mountain Lakes Behavioral Healthcare,Jackson County Office,508 Gregory Street,,Scottsboro,AL,35768,256-259-1774,,,,,SA MH SUMH * OP * CMHC * CHLOR HALOP ARIPI CLOZA OLANZ OLANZF QUETI RISPE NSC ANTPYCH * AT CBT CFT DBT GT IDD IPT TELE * CIT * PVTN * MC MD PI SF SMHA * PA SS * TAY SE GL VET CJ CO HV DV TRMA TBI PED PEFP PTSD SED SMI * STU * TBS * PEER * SMPD * CHLD YAD ADLT SNR * AH * VPPD * ACT COOT FPSY PRS SH CM SPS ES,34.68721847418182,-86.04855448763637
95,95,Coosa Valley Senior Behav Hlth,,315 West Hickory Street,,Sylacauga,AL,35150,256-401-4000,256-401-4670,,,,MH SUMH * HI * IPSY * CHLOR FLUPH HALOP LOXAP PERPH PIMOZ CLOZA ILOPE LURAS OLANZ OLANZF PALIP QUETI RISPE ZIPRA ANTPYCH * AT CBT GT IPT * PEON WI * PVTN * MC MD MI PI SF VAF * PA * SE VET ALZ PEFP * PEER * SMPD * SNR * AH * VAPN * COOT FPSY CM,33.17957580922432,-86.25941490440252
96,96,Community Hospital,,805 Friendship Road,,Tallassee,AL,36078,334-283-6541 x3870,334-283-3859,334-283-3870,,,MH SUMH * HI * IPSY * CHLOR HALOP ARIPI OLANZ QUETI RISPE ZIPRA NRT ANTPYCH * AT CBT GT IPT AIM * PVTN * MC MD MI OSF PI SEF SF SI * SE VET ALZ PED PTSD * STU * MST * TCC * SMON * ADLT SNR * VAPN * CM ES,32.554603664809385,-85.91757230879766
97,97,Bryce Hospital,,1651 Ruby Tyler Parkway,,Tuscaloosa,AL,35404,205-507-8000,,,,,SA MH SUMH * HI RES * PSY * CHLOR FLUPH HALOP LOXAP PERPH PROCH THIOT THIOR TRIFL ARIPI ASENA BREXP CLOZA ILOPE LURAS OLANZ PALIP QUETI RISPE ZIPRA NSC ANTPYCH * AT GT IPT * STG * MC OSF SEF SI SMHA * SE CJ SMI * STU * MST LABT * PEER * TCC * SMON * YAD ADLT SNR * AH * VAPN * DEC LAD SH VRS IPC SPS ES,33.21086125070994,-87.4939698922921
98,98,Family Counseling Service of ,West Alabama Inc,2020 Paul W Bryant Drive,,Tuscaloosa,AL,35401,205-752-2504,,,,,MH * OP * OMH * CBT CFT IPT TELE * PVTN * PI SF * SS * CJ * SMON * CHLD YAD ADLT SNR * VAPN * COOT,33.19597000254065,-87.56649013556911
99,99,SpectraCare Health Systems,Webb Group Home,6150 Old Webb Road,,Webb,AL,36376,334-712-9191,334-794-0731,,,,MH * RES * RTCA * CHLOR FLUPH HALOP PERPH ARIPI ASENA BREXP CARIP CLOZA ILOPE LURAS OLANZ PALIP QUETI RISPE ANTPYCH * CBT GT IPT TELE * PEON * PVTN * CSBG MC MD PI SF * SE VET CO SMI * SMPD * YAD ADLT SNR * AH * VPPD * IMR,31.249848861904763,-85.26938973333334
100,100,Northwest Medical Center,,1530 U.S. Highway 43,,Winfield,AL,35594,205-487-7916,205-487-7916 x7916,205-487-7853 x7853,,,MH SUMH * HI OP * IPSY * FLUPH HALOP ARIPI CLOZA OLANZ QUETI RISPE ZIPRA NSC ANTPYCH * GT IPT TELE AIM * PEON WI * LCCG * MC MD PI SF * SE CO TRMA ALZ PEFP PTSD * STU * HIVT STDT TBS HBT HCT LABT * SMON * ADLT SNR * VAPN * DEC FPSY CM SPS ES,33.92703251965066,-87.79560396331878
101,179,Desert Senita Community Health Center,,410 North Malacate Street,,Ajo,AZ,85321,520-387-5651,520-387-5651 x5000,,,,SA MH SUMH * OP * OMH * NRT NSC ANTPYCH * AT CBT CFT DBT EMDR GT IDD IPT TELE * PEON * PVTN * FQHC * ITU MC MD MI OSF PI SF SI SWFS * SS * TAY SE GL CJ CO TRMA PTSD SED SMI * STU * HIVT STDT TBS MST LABT * TCC * SMON * CHLD YAD ADLT SNR * AH SP * VAPN * CDM COOT DEC FPSY IMR CM IPC SPS,32.35489428823529,-112.85486542941177
102,180,Arizonas Children Association,,2066 West Apache Trail Road,Suite 101,Apache Junction,AZ,85120,480-503-8530 x1223,800-944-7611 x2293,,,,MH * OP * OMH * CBT CFT DBT GT IPT TELE AIM * PVTN * CMHG MD SF SWFS * SS * TAY TRMA SED * MST * SMPD * CHLD YAD * AH SP * VPPD * FPSY ICM CM SPS,33.4099391349067,-111.57004994272228
103,181,Horizon Health and Wellness,,625 North Plaza Drive,,Apache Junction,AZ,85120,833-431-4449,,,,,SA MH SUMH * OP * OMH * FLUPH HALOP ARIPI OLANZ QUETI RISPE NRT NSC ANTPYCH * AT CBT CFT DBT GT IDD IPT TELE AIM * PVTN * FQHC * CMHG CSBG MC MD OSF PI SCJJ SF SI SMHA SWFS * SS * TAY SE CJ CO TRMA PTSD SED SMI * STU * TBS MST LABT * HS PEER * TCC * SMPD * CHLD YAD ADLT SNR * AH SP * VPPD * CDM COOT DEC FPSY PRS SEMP SH VRS CM IPC SPS ES,33.4099391349067,-111.57004994272228
104,182,La Frontera Arizona EMPACT SPC,,11518 East Apache Trail,Suite 129,Apache Junction,AZ,85120,480-317-2214,480-317-2214 x3,,,,SA MH SUMH * OP * OMH * CHLOR FLUPH HALOP LOXAP PERPH ARIPI ASENA BREXP CARIP CLOZA LURAS OLANZ PALIP QUETI RISPE ZIPRA ANTPYCH * AT CBT CFT DBT EMDR GT IDD IPT TELE AIM * PVTN * CMHG MD SF * SS * TRMA PTSD * STU * MST * HS PEER * TCC * SMPD * CHLD YAD ADLT SNR * AH * VPPD * COOT FPSY PRS SEMP SH VRS CM SPS,33.4099391349067,-111.57004994272228
105,183,Arizona Mentor,,8428 West Royal Blackheath Drive,,Arizona City,AZ,85123,602-200-9494,,,,,MH * RES * RTCA * ANTPYCH * AT CBT GT IPT * PVTP * CMHG CSBG MD SF SMHA * SMI * STU * TCC * SMPD * YAD ADLT SNR * VPPD * COOT DEC PRS SPS,32.75550146666667,-111.6703373
106,184,Community Bridges Inc,West Valley Inpatient,824 North 99th Avenue,Suite 109,Avondale,AZ,85323,623-907-1457,623-907-6520,,,,SA MH SUMH * HI * PSY * NRT NSC ANTPYCH * CBT GT IDD IPT TELE AIM * CIT PEON PEOFF * PVTN * CMHG MC MD MI PI SF SI SMHA * PA * CO * STU * PEER * TCC * SMON * YAD ADLT SNR * AH SP * VAPN * FPSY IMR PRS CM IPC SPS ES,33.432675070707944,-112.31882657760627
107,185,Stand Together and Recover Centers,,605 North Central Avenue,,Avondale,AZ,85323,623-882-8463,602-231-0071,,,,MH SUMH * OP * OMH * AT CBT GT IDD IPT * PEON * PVTN * MC MD PI SF SI SMHA SWFS * SS * GL VET ADM MF CJ CO HV TRMA TBI PTSD SMI * PEER * SMPD * YAD ADLT SNR * AH SP FX * F4 * VPPD * COOT DEC IMR PRS SEMP CM IPC SPS ES,33.432675070707944,-112.31882657760627
108,186,Touchstone Health Services,Avondale,12409 West Indian School Road,Building E,Avondale,AZ,85392,866-207-3882,,,,,MH SUMH * OP * OMH * FLUPH HALOP CLOZA LURAS OLANZ QUETI RISPE ANTPYCH * AT CBT CFT DBT GT IPT TELE * PEON WI * PVTN * CLF CMHG ITU MC MD OSF PI SEF SF SI SMHA SWFS * PA SS * CO TRMA SED * STU * MST LABT * SMON * CHLD * AH SP * VAPN * FPSY CM IPC SPS,33.47887539388161,-112.31166236572075
109,187,Caring Connections for,Special Needs LLC,870 West 4th Street,,Benson,AZ,85602,520-639-9006,,,,,MH SUMH * OP * OMH * PVTP * CMHG MD * SMON * CHLD * AH * VAPN * FPSY CM,32.090058948717946,-110.32046049487178
110,188,Southeastern Arizona Behavioral Health,Services Inc (SEABHS),590 South Ocotillo Avenue,,Benson,AZ,85602,520-586-6177,520-586-6940,,,,SA MH SUMH * OP * OMH * CHLOR FLUPH HALOP LOXAP PERPH PROCH THIOT THIOR ARIPI ASENA BREXP CARIP CLOZA ILOPE LURAS OLANZ OLANZF PALIP QUETI RISPE ZIPRA NSC ANTPYCH * CBT CFT GT IDD IPT TELE * WI * PVTN * CMHG CSBG MC MD PI SF * SS * STU * HS PEER * TCC * SMPD * CHLD YAD ADLT SNR * AH * VPPD * COOT FPSY ICM PRS SH VRS CM SPS,32.090058948717946,-110.32046049487178
111,189,New Hope of Arizona Inc,,1881 South 235th Drive,,Buckeye,AZ,85326,602-535-5686,,,,,SA MH SUMH * RES * RTCC * DBT * PVTP * MD * CO TRMA TBI PTSD SED * SMON * CHLD * SP * VAPN * COOT FPSY,33.41079673588682,-112.54710016168848
112,190,Southwest Behavioral Health Services,Buckeye Clinic,26428 West U.S. Highway 85,,Buckeye,AZ,85326,623-882-9906,,,,,SA MH SUMH * OP * OMH * CHLOR FLUPH HALOP LOXAP PERPH PIMOZ THIOT THIOR TRIFL ARIPI ASENA BREXP CARIP CLOZA LURAS OLANZ PALIP QUETI RISPE ZIPRA ANTPYCH * CBT CFT DBT GT IDD IPT TELE AIM * WI * PVTN * CMHG FG MC MD PI SF * GL CO DV TRMA PTSD SED SMI * STU * MST LABT * HS PEER * TCC * SMPD * CHLD YAD ADLT SNR * AH SP * VPPD * CDM COOT DEC FPSY ICM PRS SH VRS CM IPC SPS ES,33.41079673588682,-112.54710016168848
113,191,Hildys House,,1160 Agate Avenue,,Bullhead City,AZ,86442,928-763-1945,,,,,SA MH SUMH * RES * RTCA * NRT * CBT CRT CFT DBT GT IDD IPT TELE * PVTN * CLF CSBG MD PI PCF SEF SF SI SWFS * PA SS * TAY SE GL VET MF CJ CO HV DV TRMA TBI PED PTSD SMI * STU * HIVT * HS PEER * TCC * SMPD * YAD ADLT SNR * SP * VPPD * COOT DEC FPSY ICM LAD PRS SEMP CM IPC SPS ES,35.1062753625,-114.593727753125
114,192,Mohave Mental Health Clinic Inc,,1145 Marina Boulevard,,Bullhead City,AZ,86442,928-758-5905,,,,,SA MH SUMH * OP * OMH * CHLOR DROPE FLUPH HALOP LOXAP PERPH PIMOZ PROCH THIOT THIOR TRIFL ARIPI ASENA BREXP CARIP CLOZA ILOPE LURAS OLANZ OLANZF PALIP QUETI RISPE ZIPRA NRT NSC ANTPYCH * AT CBT CFT DBT EMDR GT IDD IPT TELE AIM * CIT PEON PEOFF * PVTN * CMHG CSBG MC MD MI PI SF SI * PA SS * CO TRMA SMI * STU * MST LABT * HS PEER * TCC * SMON * YAD ADLT SNR * AH SP * VAPN * CDM COOT DEC FPSY ICM PRS SEMP VRS CM SPS,35.1062753625,-114.593727753125
115,193,Mohave Mental Health Clinic Inc,Child and Family Service Center,2580 Highway 95,Suite 209,Bullhead City,AZ,86442,928-757-8111,,,,,SA MH SUMH * OP * OMH * AT CBT CFT DBT GT IDD IPT TELE AIM * CIT PEON PEOFF WI * PVTN * FQHC * CMHG ITU MC MD SF SI SMHA * PA SS * TAY GL CO TRMA PEFP PTSD SED * STU * MST * TCC * SMON * CHLD YAD * AH SP * VAPN * COOT FPSY VRS CM SPS,35.1062753625,-114.593727753125
116,194,Rivyve Behavioral Health,,2150 Silver Creek Road,,Bullhead City,AZ,86442,928-296-8898,,,,,SA MH SUMH * RES * RTCA * CLOZA QUETI RISPE NRT ANTPYCH * AT CBT CRT CFT GT IDD IPT * PVTP * CLF CMHG CSBG ITU MD OSF PI SCJJ SEF SF SI SMHA VAF * SS * TAY SE GL VET ADM MF CJ CO HV DV TRMA TBI ALZ PED PEFP PTSD SMI * TBS * HS PEER * SMPD * YAD ADLT SNR * VPPD * COOT DEC FPSY PRS SEMP SH VRS CM IPC ES,35.1062753625,-114.593727753125
117,195,Solutions One Stop Counseling,,1099 Hancock Road,Suite B,Bullhead City,AZ,86442,928-299-3698,,,,,SA MH SUMH * OP * OMH * CBT CFT GT IDD IPT * PVTP * MHC * PI SF * TAY SE GL VET ADM MF CJ CO DV TRMA TBI PED PTSD SED SMI * STU * PEER * TCC * SMPD * CHLD YAD ADLT SNR * SP * VPPD * COOT FPSY PRS VRS CM SPS ES,35.1062753625,-114.593727753125
118,196,Southwest Behavioral Health Services,Bullhead City Outpatient Clinic,2580 Highway 95,Suite 120,Bullhead City,AZ,86442,602-257-9339,928-763-7776,,,,SA MH SUMH * OP * OMH * ANTPYCH * AT CBT CFT DBT GT IDD IPT TELE * CIT WI * PVTN * CMHG MD MI PI SF SI SMHA SWFS * SS * TAY VET CJ CO TRMA PTSD SED SMI * STU * PEER * TCC * SMPD * CHLD YAD ADLT SNR * AH * VPPD * COOT DEC FPSY ICM PRS SEMP VRS CM IPC SPS,35.1062753625,-114.593727753125
119,197,Spectrum Healthcare,,452 Finnie Flat Road,,Camp Verde,AZ,86322,928-634-2236,,,,,SA MH SUMH * OP * CHLOR FLUPH HALOP LOXAP PERPH PIMOZ PROCH THIOT THIOR TRIFL ARIPI ASENA BREXP CARIP CLOZA ILOPE LURAS OLANZ OLANZF PALIP QUETI RISPE ZIPRA ANTPYCH * IDD * CIT PEOFF * PVTN * MC MD PI SF SI * SS * STU * PEER * TCC * SMPD * CHLD YAD ADLT SNR * AH * VPPD * CDM COOT ICM CM IPC,34.58549342083333,-111.8742183375
120,198,Arizona Mentor,,1668 East Melissa Street,,Casa Grande,AZ,85122,602-200-9494,,,,,MH * RES * RTCA * ANTPYCH * AT CBT GT IPT * PVTP * CMHG CSBG MD SF SMHA * SMI * STU * TCC * SMPD * YAD ADLT SNR * VPPD * COOT DEC PRS SPS,32.889701836538464,-111.728379375
121,199,Arizona Mentor,,621 West Racine Loop,,Casa Grande,AZ,85122,602-200-9494,,,,,MH * RES * RTCA * ANTPYCH * AT CBT GT IPT * PVTP * CMHG CSBG MD SF SMHA * SMI * STU * TCC * SMPD * YAD ADLT SNR * VPPD * COOT DEC PRS SPS,32.889701836538464,-111.728379375
122,200,Arizonas Children Association,,2028 North Trekell Road,Suite 102,Casa Grande,AZ,85122,520-381-3010,800-944-7611 x2293,,,,MH * OP * OMH * CBT CFT DBT GT IPT TELE AIM * PVTN * CMHG MD SF SWFS * SS * TAY TRMA SED * MST * SMPD * CHLD YAD * AH SP * VPPD * FPSY ICM CM SPS,32.889701836538464,-111.728379375
123,201,Centro Conocimiento,,330 North Picacho Street,,Casa Grande,AZ,85122,520-876-5833,520-466-7765,520-723-7405,,,SA MH SUMH * OP * OMH * ANTPYCH * AT CBT CFT DBT GT IDD IPT TELE * CIT WI * PVTN * CLF CMHG CSBG MC MD OSF PI SCJJ SF SI SWFS * TAY SE GL VET ADM MF CJ CO TRMA TBI ALZ PED PTSD SED SMI * STU * HS * TCC * SMPD * YAD ADLT SNR * AH SP * VPPD * ACT COOT DEC ICM SEMP SH VRS CM IPC SPS ES,32.889701836538464,-111.728379375
124,202,Corazon Behavioral Health Services,,900 East Florence Boulevard,Suite G,Casa Grande,AZ,85122,520-836-4278 x3631,520-836-4278,520-375-5300,,,SA MH SUMH * OP * OMH * OLANZ OLANZF QUETI RISPE ANTPYCH * CBT CRT CFT DBT EMDR GT IDD IPT TELE AIM * PVTP * FG MC MD PI SF * SS * SMPD * CHLD YAD ADLT SNR * AH SP * VAPN * SEMP CM,32.889701836538464,-111.728379375
125,203,Crisis Preparation and Recovery Inc,,1828 East Florence Boulevard,"Building C, Suite 143",Casa Grande,AZ,85122,480-804-0326,480-804-0326 x0,480-804-0326 x4002,,,SA MH * OP * OMH * NRT * CBT CFT DBT EMDR IDD IPT TELE * CIT * PVTP * MC MD MI PI SF SI * STU * MST LABT * TCC * SMON * CHLD YAD ADLT SNR * AH * VAPN * ACT FPSY CM SPS,32.889701836538464,-111.728379375
126,204,Easterseals Blake Foundation,,1115 East Florence Boulevard,Suite A,Casa Grande,AZ,85122,520-723-4429,,,,,SA MH SUMH * OP * OMH * CLOZA RISPE ANTPYCH * AT CBT CFT DBT EMDR GT IDD IPT TELE AIM * PVTN * MC MD SI SMHA SWFS * TAY SE GL VET MF CJ CO HV DV TRMA TBI PED PEFP PTSD SED SMI * STU * HS PEER * TCC * SMPD * CHLD YAD ADLT SNR * AH SP * VPPD * DEC FPSY ICM PRS SEMP SH VRS CM SPS ES,32.889701836538464,-111.728379375
127,205,Horizon Health and Wellness,,115 and 117 West 2nd Street,,Casa Grande,AZ,85122,520-836-1688,480-983-0065,,,,SA MH SUMH * OP * OMH * ANTPYCH * CBT CFT DBT GT IDD IPT TELE AIM * CIT PEOFF * PVTN * FQHC * CMHG MC MD OSF PI SF SI SMHA SWFS * SS * GL MF CJ CO HV DV TRMA TBI PED PEFP PTSD SED * STU * TCC * SMPD * CHLD * SP * VPPD * CDM COOT DEC FPSY ICM PRS CM IPC SPS ES,32.889701836538464,-111.728379375
128,206,Horizon Health and Wellness,Casa Grande Main Office,210 East Cottonwood Lane,,Casa Grande,AZ,85122,520-836-1688,480-983-0065,,,,SA MH SUMH * OP * OMH * ANTPYCH * CBT CFT DBT EMDR GT IDD IPT TELE AIM * CIT PEOFF * PVTN * FQHC * CMHG MC MD OSF PI SF SI SMHA SWFS * SS * TAY SE GL VET ADM MF CJ CO HV DV TRMA TBI PED PEFP PTSD SMI * STU * HS PEER * TCC * SMPD * YAD ADLT SNR * SP * VPPD * CDM COOT DEC FPSY ICM SEMP SH VRS CM IPC SPS ES,32.889701836538464,-111.728379375
129,207,Horizon Health and Wellness,Peart III,2269 South Peart Road,,Casa Grande,AZ,85122,520-836-1911,480-983-0065,,,,SA MH SUMH * RES * ORES * FLUPH HALOP LOXAP PERPH ARIPI CLOZA OLANZ OLANZF QUETI RISPE ZIPRA NRT NSC ANTPYCH * GT IDD * PVTN * MD SI SMHA * CO * STU * HIVT STDT TBS MST HCT LABT * PEER * TCC * SMPD * YAD ADLT SNR * VPPD * ICM VRS CM IPC,32.889701836538464,-111.728379375
130,208,Resilient Health,PSA Behavioral Health Agency,309 West 2nd Street,,Casa Grande,AZ,85122,602-995-1767,520-423-0707,877-779-2470,,,MH SUMH * OP * OMH * AT GT TELE * PVTN * CMHG FG MD SF * TAY SE CO TRMA PTSD SMI * STU * PEER * SMPD * CHLD YAD ADLT SNR * VPPD * PRS,32.889701836538464,-111.728379375
131,209,Arizona Mentor,Curry,874 South Sunset Court,,Chandler,AZ,85225,602-200-9494,,,,,MH * RES * RTCA * ANTPYCH * AT CBT GT IPT * PVTP * CMHG CSBG MD SF SMHA * SMI * STU * TCC * SMPD * YAD ADLT SNR * VPPD * COOT DEC PRS SPS,33.31329361951391,-111.82802174548354
132,210,Arizona Mentor,Horizon,3026 East Kingbird Place,,Chandler,AZ,85286,602-200-9494,,,,,MH * RES * RTCA * ANTPYCH * AT CBT GT IPT * PVTP * CMHG CSBG MD SF SMHA * SMI * STU * TCC * SMPD * YAD ADLT SNR * VPPD * COOT DEC PRS SPS,33.27043735647469,-111.83012429816175
133,211,Arizonas Children Association,,1351 North Alma School Road,Suite 205,Chandler,AZ,85225,480-814-7789,800-944-7611 x2293,,,,MH * OP * OMH * CBT CFT DBT GT IPT TELE AIM * PVTN * CMHG MD SF SWFS * SS * TAY TRMA SED * MST * SMPD * CHLD YAD * AH SP * VPPD * FPSY ICM CM SPS,33.31329361951391,-111.82802174548354
134,212,Banner Behavioral Health Hospital,Outpatient Services/Chandler Campus,1600 West Chandler Boulevard,Suite 180,Chandler,AZ,85224,480-543-6767,602-254-4357,480-543-6764,,,SA MH * OP * OMH * CBT DBT GT IDD * PVTN * PI SF * TAY CO SED * SMON * CHLD YAD ADLT SNR * AH * VPPD * FPSY SPS,33.324200876851556,-111.87426790357105
135,213,Buena Vista Health and Recovery LLC,Chandler,3033 South Arizona Avenue,,Chandler,AZ,85248,800-922-0095,,,,,SA MH SUMH * HI OP PHDT RES * MSMH * HALOP OLANZ OLANZF QUETI RISPE NRT NSC ANTPYCH * AT CBT CFT DBT GT IDD IPT TELE * PVTP * ITU MD MI PI SF VAF * SE GL VET ADM MF CO TRMA PTSD * HIVT STDT TBS LABT * TCC * SMPD * YAD ADLT SNR * VPPD * DEC FPSY ICM LAD SEMP VRS CM IPC,33.227581542034414,-111.86632973367341
136,214,Lifeline Professional Counseling Servs,,335 North Alma School Road,Suite E,Chandler,AZ,85224,480-641-1165,,,,,SA MH SUMH * OP PHDT * OMH * AT CBT CFT DBT EMDR GT IDD IPT TELE * CIT * PVTP * CLF ITU MC MD MI PI SCJJ SF SI SWFS * TAY SE GL VET ADM MF CJ CO HV DV TRMA TBI PED PEFP PTSD SED SMI * STU * TCC * SMPD * CHLD YAD ADLT SNR * AH SP NX FX * F4 F17 F36 * VPPD * ACT COOT DEC FPSY CM IPC SPS,33.324200876851556,-111.87426790357105
137,215,Oasis Behavioral Health Hospital,,2190 North Grace Boulevard,,Chandler,AZ,85225,480-917-9301,480-281-5055,,,,SA MH SUMH * HI RES * PSY * ARIPI LURAS OLANZ QUETI RISPE ZIPRA NSC ANTPYCH * AT CBT CFT DBT GT IDD TELE AIM * CIT * PVTP * ITU MC MD MI PI SCJJ SF SI SWFS * TAY SE GL VET ADM MF CO TRMA PTSD SED SMI * STU * TBS * TCC * SMON * CHLD YAD ADLT SNR * AH SP * VAPN * FPSY CM SPS,33.31329361951391,-111.82802174548354
138,216,Southwest Network,Chandler,3140 North Arizona Avenue,Suite 113,Chandler,AZ,85225,480-497-4040,602-304-0014,,,,SA MH SUMH * OP * OMH * CBT CFT GT IPT TELE * PVTN * CLF CMHG MC MD PI SF SI SMHA SWFS * SS * TAY SE CO TRMA PED PTSD SED * SMPD * CHLD YAD ADLT SNR * AH SP * VAPN * FPSY PRS CM SPS,33.31329361951391,-111.82802174548354
139,217,Southwest Network,San Tan,1465 West Chandler Boulevard,Building A,Chandler,AZ,85224,480-786-8200,,,,,SA MH SUMH * OP * OMH * CHLOR DROPE FLUPH HALOP LOXAP PERPH PIMOZ PROCH THIOT THIOR TRIFL ARIPI ASENA BREXP CARIP CLOZA ILOPE LURAS OLANZ OLANZF PALIP QUETI RISPE ZIPRA NRT NSC ANTPYCH * CBT GT IDD IPT TELE * PVTN * CMHG MC MD PI SF SI SMHA * SS * CO SMI * STU * PEER * TCC * SMPD * CHLD YAD ADLT SNR * AH SP * VAPN * ACT COOT FPSY IMR PRS SEMP CM SPS,33.324200876851556,-111.87426790357105
140,218,Transitions Counseling and Consulting,,1600 West Chandler Boulevard,Suite 230,Chandler,AZ,85224,602-363-0629,,,,,MH * OP * OMH * DBT GT TELE * PVTP * MI PI SF VAF * TAY * STU * TCC * SMPD * CHLD YAD ADLT * VPPD * SPS,33.324200876851556,-111.87426790357105
141,219,Polara Health,Chino Valley Clinic,555 West Road 3 North,,Chino Valley,AZ,86323,928-445-5211,928-445-5211 x2701,928-583-6411 x2701,,,SA MH SUMH * OP * OMH * ANTPYCH * CBT CFT DBT GT IPT TELE AIM * PVTN * CMHG MC MD MI PI SF SMHA * SS * GL SED SMI * PEER * SMPD * CHLD YAD ADLT SNR * AH * VPPD * COOT ICM CM,34.731071166666666,-112.45445416666668
142,220,Encompass Health Services,Colorado City Outpatient,50 West Township Avenue,,Colorado City,AZ,86021,928-875-2066,,,,,SA MH SUMH * OP * OMH * HALOP LOXAP ARIPI CLOZA LURAS OLANZ OLANZF PALIP QUETI RISPE NRT NSC ANTPYCH * AT CBT CFT DBT GT IDD IPT TELE AIM * WI * PVTN * CMHG CSBG ITU MC MD MI PI SF SI VAF * CJ CO TRMA SMI * HS PEER * TCC * SMPD * CHLD YAD ADLT SNR * AH * VPPD * CDM COOT DEC FPSY ICM IMR PRS SEMP SH VRS CM SPS ES,36.9857482,-112.9801347
143,221,Spectrum Healthcare,,651 West Mingus Avenue,,Cottonwood,AZ,86326,877-634-7333,,,,,SA MH SUMH * OP * CHLOR FLUPH HALOP LOXAP PERPH PIMOZ PROCH THIOT THIOR TRIFL ARIPI ASENA BREXP CARIP CLOZA ILOPE LURAS OLANZ OLANZF PALIP QUETI RISPE ZIPRA ANTPYCH * GT IDD IPT * CIT PEOFF * PVTN * MC MD PI SF SI * STU * PEER * TCC * SMPD * CHLD YAD ADLT SNR * AH * VPPD * CDM COOT ICM CM IPC,34.950690088636364,-111.12168601363638
144,222,Spectrum Healthcare,,8 East Cottonwood Street,,Cottonwood,AZ,86326,928-634-2236,,,,,SA MH SUMH * OP RES * ORES * CHLOR FLUPH HALOP LOXAP PERPH PIMOZ PROCH THIOT THIOR TRIFL ARIPI ASENA BREXP CARIP CLOZA ILOPE LURAS OLANZ OLANZF PALIP QUETI RISPE ZIPRA ANTPYCH * GT IDD * CIT PEOFF * PVTN * MC MD PI SF SI * SS * PEER * SMPD * CHLD YAD ADLT SNR * AH * VPPD * COOT ICM CM,34.950690088636364,-111.12168601363638
145,223,Mingus Mountain Academy,Farrington House,100 Dewey Road,,Dewey,AZ,86327,602-335-2000,,,,,SA MH SUMH * RES * RTCC * AT CBT CFT DBT GT IDD IPT AIM * PVTN * CMHG ITU MD MI PI PCF SCJJ SF SI SMHA SWFS * CO SED * STU * SMON * CHLD * AH * VAPN * COOT FPSY CM IPC SPS ES,34.53163935416667,-112.14859720416668
146,224,Caring Connections for,Special Needs LLC,1019 F Avenue,,Douglas,AZ,85607,520-639-9006,,,,,MH SUMH * OP * OMH * PVTP * CMHG MD * SMON * CHLD * AH SP * VAPN * FPSY CM,31.35568149047619,-109.54749683809524
147,225,HOPE Inc,Douglas Office,661 North G Avenue,,Douglas,AZ,85607,520-364-6767,520-770-1197 x1274,520-770-1197 x1238,,,MH SUMH * OP * OMH * CBT GT * PVTN * CMHG MD * SE GL CO TRMA PTSD SMI * PEER * SMPD * YAD ADLT SNR * AH * VPPD * SEMP CM ES,31.35568149047619,-109.54749683809524
148,226,Pinal Hispanic Council,,1940 East 11th Street,,Douglas,AZ,85607,520-364-4508,,,,,SA MH SUMH * OP * OMH * CHLOR FLUPH HALOP ARIPI CLOZA LURAS OLANZ PALIP QUETI RISPE ANTPYCH * CBT CFT GT IDD IPT TELE * PVTN * CMHG MC MD SF * SMPD * CHLD YAD ADLT SNR * SP * VPPD * COOT FPSY SEMP CM,31.35568149047619,-109.54749683809524
149,227,PSA Behavioral Health Agency,DBA Resilient Health,1023 F Avenue,,Douglas,AZ,85607,520-253-8186,,,,,SA MH SUMH * OP * OMH * AT GT TELE * PVTN * MHC * CMHG MD SF SI * TAY CO TRMA PTSD SMI * STU * PEER * SMPD * CHLD YAD ADLT SNR * SP * VPPD * COOT FPSY PRS CM,31.35568149047619,-109.54749683809524
150,228,Southeastern Arizona Behavioral Health,Services Inc (SEABHS),936 F Avenue,Suite B,Douglas,AZ,85607,520-364-3630,520-586-6940,,,,SA MH SUMH * OP * OMH * CHLOR FLUPH HALOP LOXAP PERPH PROCH THIOT THIOR ARIPI ASENA BREXP CARIP CLOZA ILOPE LURAS OLANZ OLANZF PALIP QUETI RISPE ZIPRA NSC ANTPYCH * CBT CFT GT IDD IPT TELE * WI * PVTN * CMHG CSBG MC MD PI SF * SS * STU * HS PEER * TCC * SMPD * CHLD YAD ADLT SNR * AH SP * VPPD * COOT FPSY ICM PRS SH VRS CM SPS,31.35568149047619,-109.54749683809524
151,229,Canyonlands Community Healthcare,Globe,227 Main Street,Suite 102,Duncan,AZ,85534,928-402-0941,,,,,SA MH SUMH * OP * NSC ANTPYCH * AT CBT CFT IDD IPT TELE * PVTN * FQHC MHC * ITU MC MD MI PI SF SI * PA SS * TAY SE GL VET ADM MF CJ CO HV TRMA TBI ALZ PED PTSD SED SMI * STU * HIVT STDT TBS MST HBT HCT LABT * PEER * TCC * SMON * CHLD YAD ADLT SNR * VAPN * COOT DEC FPSY IPC,32.72260765,-109.1008204
152,230,Arizonas Children Association,,906 West University Avenue,Suites 140 and 150,Flagstaff,AZ,86001,928-527-1000,800-944-7611 x2293,,,,MH * OP * OMH * CBT CFT GT IPT TELE * PVTN * CMHG MD SF SWFS * SS * TAY TRMA SED * SMPD * CHLD YAD * AH * VPPD * FPSY SPS,35.19632437429357,-111.6565188501112
153,231,Flagstaff Medical Center,Behavioral Health Services,1200 North Beaver Street,,Flagstaff,AZ,86001,928-213-6300,928-214-3937,,,,SA MH SUMH * HI OP * IPSY * FLUPH HALOP LOXAP ARIPI ASENA CLOZA OLANZ PALIP QUETI RISPE ZIPRA NRT NSC ANTPYCH * CBT CFT DBT ECT EMDR GT IDD IPT TELE AIM * PEON * PVTN * ITU MC MD MI PI SF * STU * MST LABT * TCC * SMON * CHLD YAD ADLT SNR * AH * VAPN * DEC FPSY CM IPC,35.19632437429357,-111.6565188501112
154,232,Guidance Center Inc,Outpatient Services,2695 East Industrial Drive,,Flagstaff,AZ,86004,928-527-1899,,,,,SA MH SUMH * OP * OMH * CHLOR FLUPH HALOP LOXAP ARIPI CLOZA OLANZ OLANZF RISPE ANTPYCH * AT CBT CFT DBT GT IDD IPT TELE * CIT * PVTN * CLF CMHG CSBG ITU MC MD OSF PI SCJJ SF SMHA * PA SS * TAY GL CJ CO PTSD SED * STU * HS PEER * SMON * CHLD YAD ADLT SNR * AH SP NX * VAPN * COOT FPSY PRS VRS CM SPS,35.2121811910409,-111.59647623262892
155,233,Guidance Center Inc,Vickey Street Office,2187 North Vickey Street,,Flagstaff,AZ,86004,928-527-1899,,,,,SA MH SUMH * HI * PSY * CHLOR FLUPH HALOP LOXAP ARIPI CLOZA OLANZ OLANZF RISPE NRT ANTPYCH * AT CBT DBT GT IDD IPT TELE AIM * CIT PEON WI * PVTN * CLF CMHG CSBG ITU MC MD OSF PI SCJJ SF SMHA * PA SS * GL CJ CO PTSD SMI * STU * MST * HS PEER * SMON * YAD ADLT SNR * AH SP NX * VAPN * ACT COOT PRS SEMP VRS CM IPC SPS,35.2121811910409,-111.59647623262892
156,234,North Country Healthcare,,2920 North 4th Street,,Flagstaff,AZ,86004,928-522-9400,,,,,SA MH * OP * OMH * NRT NSC * CBT CFT DBT IDD IPT TELE * PVTN * FQHC * FG ITU MC MD PI SF * PA SS * HV * STU * MST LABT * PEER * TCC * SMON * CHLD YAD ADLT SNR * AH SP * VAPN * CDM DEC FPSY IPC ES,35.2121811910409,-111.59647623262892
157,235,Southwest Behavioral Health Services,,1515 East Cedar Avenue,Suite E-2,Flagstaff,AZ,86004,928-779-4550,,,,,SA MH SUMH * OP * OMH * FLUPH HALOP ARIPI BREXP CARIP CLOZA LURAS OLANZ PALIP QUETI RISPE ZIPRA ANTPYCH * AT CBT CFT EMDR GT IDD IPT TELE AIM * CIT * PVTN * FQHC * CMHG CSBG ITU MC MD MI OSF PI SF * SS * CO TRMA PTSD * STU * HIVT TBS MST HBT HCT LABT * HS PEER * TCC * SMOP * YAD ADLT SNR * AH SP * VAPP * COOT DEC FPSY VRS CM IPC SPS,35.2121811910409,-111.59647623262892
158,236,Arizonas Children Association,,225 South Orlando Street,,Florence,AZ,85132,520-723-6893,800-944-7611 x2293,,,,MH * OP * OMH * CBT CFT DBT GT IPT TELE AIM * PVTN * CMHG MD SF SWFS * SS * TAY TRMA SED * MST * SMPD * CHLD YAD * AH SP * VPPD * FPSY ICM CM SPS,33.06079979960938,-111.47708685976562
159,237,Horizon Health and Wellness,,450 West Adamsville Road,,Florence,AZ,85132,833-431-4449,,,,,SA MH SUMH * OP * OMH * CHLOR FLUPH HALOP LOXAP PERPH PROCH TRIFL ARIPI CLOZA OLANZ OLANZF QUETI RISPE ZIPRA NSC ANTPYCH * CBT CFT GT IDD IPT TELE AIM * CIT PEON WI * PVTN * FQHC * CMHG CSBG ITU MC MD PI SF SI SMHA SWFS * SS * TAY SE VET CO DV TRMA PEFP PTSD SED SMI * STU * HIVT STDT TBS MST HBT HCT LABT * HS PEER * SMPD * CHLD YAD ADLT SNR * AH SP * VPPD * COOT DEC FPSY PRS SEMP SH VRS CM IPC ES,33.06079979960938,-111.47708685976562
160,238,Navajo Health Foundation/Sage Mem,Hospital Behav Health Clinic,Highways 191 and 264,,Ganado,AZ,86505,928-755-4586,,,,,SA MH * OP * OMH * ANTPYCH * CBT CFT DBT GT IDD IPT TELE * CIT PEON * PVTN * ITU MC MI PI SI * CO * TBS * PEER * SMPD * CHLD YAD ADLT SNR * VAPN * COOT,35.65568694666666,-109.60899713333333
161,239,2nd Chance Treatment Center,,2450 East Guadalupe Road,Suite 103,Gilbert,AZ,85234,602-464-9576,480-907-6818,,,,SA MH SUMH * OP * OMH * CBT GT IDD IPT TELE * PVTP * MHC * MC MD MI PI SF VAF * SMPD * CHLD YAD ADLT SNR * VPPD * COOT,33.36177599095713,-111.73591693149238
162,240,2nd Chance Treatment Center,,7400 South Power Road,Suite 126,Gilbert,AZ,85297,602-464-9576,,,,,SA MH SUMH * OP * OMH * CBT GT IDD IPT TELE * PVTP * MHC * MC MD MI PI SF VAF * SMPD * CHLD YAD ADLT SNR * VPPD * COOT,33.277168722854135,-111.72106258116995
163,241,Arizonas Children Association,,1420 North Greenfield Road,Suites 100 and 101,Gilbert,AZ,85234,480-474-2263,800-944-7611 x2293,,,,MH * OP * OMH * CBT CFT DBT GT IPT TELE AIM * PVTN * CMHG MD SF SWFS * SS * TAY TRMA SED * MST * SMPD * CHLD YAD * AH SP * VPPD * FPSY ICM CM SPS,33.36177599095713,-111.73591693149238
164,242,Care Clinic,,1525 South Higley Road,,Gilbert,AZ,85296,844-782-6963,,,,,SA MH SUMH * OP * OMH * HALOP ARIPI OLANZ QUETI RISPE NRT ANTPYCH * IDD TELE * PVTP * PI SF * YAD ADLT SNR,33.3347021808979,-111.74155646349335
165,243,Grossman and Grossman Ltd,Mesa Office,3420 South Mercy Drive,Suite 109,Gilbert,AZ,85296,602-468-2077,,,,,SA MH SUMH * OP * OMH * CBT CFT DBT IDD IPT TELE * PVTP * CLF ITU MD SCJJ SEF SF SI SMHA SWFS * SS * TAY SE GL CO TRMA PED PTSD SED SMI * SMON SMPD * CHLD YAD ADLT SNR * SP FX * F47 F70 * VAPN VPPD * COOT SPS,33.3347021808979,-111.74155646349335
166,244,PSA Behavioral Health Agency,DBA Resilient Health,3271 East Queen Creek Road,"Building 2, Suite 101",Gilbert,AZ,85297,602-995-1767,480-550-3193,877-779-2470,,,SA MH SUMH * OP * OMH * ANTPYCH * AT CBT CFT DBT EMDR GT IDD IPT TELE * PVTN * CMHG FG MC MD PI SF * TAY SE CO TRMA PTSD SED SMI * STU * PEER * SMPD * CHLD YAD ADLT SNR * VPPD * PRS CM IPC,33.277168722854135,-111.72106258116995
167,245,Touch Angels Behav Healthcare LLC,,5045 South Tatum Lane,,Gilbert,AZ,85298,720-934-6368,480-616-0133,,,,SA MH SUMH * RES * RTCA * ARIPI CLOZA LURAS OLANZ PALIP QUETI RISPE ZIPRA NRT NSC ANTPYCH * AT CBT CFT DBT ECT GT IDD IPT TELE * PVTP * CLF CMHG CSBG ITU MD OSF SCJJ SEF SF SI SMHA SWFS VAF * SE GL VET ADM MF CJ CO HV TRMA TBI PTSD SMI * STU * PEER * TCC * SMPD * YAD ADLT SNR * VAPN * ACT COOT FPSY ICM PRS SEMP SH VRS CM IPC SPS ES,33.23883020277062,-111.72340132916116
168,246,2nd Chance Treatment Center,,18555 North 79th Avenue,Suite D-107,Glendale,AZ,85308,602-464-9576,,,,,SA MH SUMH * OP * OMH * CBT GT IDD IPT TELE * PVTP * MHC * MC MD MI PI SF VAF * SMPD * CHLD YAD ADLT SNR * SP * VPPD * COOT,33.659863202432675,-112.18030340614385
169,247,A New Leaf Inc,West Valley Family Care,8581 North 61st Avenue,,Glendale,AZ,85302,623-934-1991,,,,,SA MH SUMH * OP * OMH * NSC * CBT CFT DBT GT IPT TELE * PVTN * CMHG MD PI SCJJ SF SWFS * SS * STU * SMON * CHLD YAD ADLT * AH SP * VAPN * FPSY CM IPC SPS,33.56852887969285,-112.17611306385419
170,248,Arizona Mentor,Echo,8851 West Northview Avenue,,Glendale,AZ,85305,602-200-9494,,,,,MH * RES * RTCA * ANTPYCH * AT CBT GT IPT * PVTP * CMHG CSBG MD SF SMHA * SMI * STU * TCC * SMPD * YAD ADLT SNR * VPPD * COOT DEC PRS SPS,33.53047615180582,-112.2486581390713
171,249,Arizona Mentor,Union Hills,18244 North 39th Drive,,Glendale,AZ,85308,602-200-9494,,,,,MH * RES * RTCA * ANTPYCH * AT CBT GT IPT * PVTP * CMHG CSBG MD SF SMHA * SMI * STU * TCC * SMPD * YAD ADLT SNR * VPPD * COOT DEC PRS SPS,33.659863202432675,-112.18030340614385
172,250,Aurora Behavioral Health Systems LLC,,6015 West Peoria Avenue,,Glendale,AZ,85302,623-344-4400,623-344-4487,877-870-7012,,,SA MH SUMH * HI OP PHDT * PSY * CHLOR HALOP LOXAP PROCH ARIPI ASENA BREXP CLOZA LURAS OLANZ OLANZF PALIP QUETI RISPE ZIPRA NRT NSC ANTPYCH * AT ECT GT IDD TELE * CIT PEON WI * PVTP * ITU MC MD MI PI SF SI VAF * TAY SE GL VET ADM MF CJ CO HV DV TRMA TBI PEFP PTSD SED SMI * STU * HIVT STDT TBS HBT HCT LABT * TCC * SMPD * CHLD YAD ADLT SNR * AH SP NX FX * F4 F17 F19 F25 F28 F30 F31 F35 F36 F37 F42 F43 F47 F66 F67 F70 F81 F92 * VAPN * COOT DEC FPSY CM SPS,33.56852887969285,-112.17611306385419
173,251,Banner Thunderbird Medical Center,Banner Thunderbird Behavioral Health,5555 West Thunderbird Road,,Glendale,AZ,85306,602-865-5555,602-254-4357,,,,SA MH SUMH * HI OP * IPSY * CHLOR FLUPH HALOP PROCH ARIPI CLOZA ILOPE LURAS OLANZ PALIP QUETI RISPE ZIPRA NRT NSC ANTPYCH * AT CBT DBT GT IDD IPT TELE * PEON WI * PVTN * CLF ITU MC MD MI OSF PI SF SI VAF * TAY CO SMI * STU * HIVT STDT TBS MST LABT * PEER * TCC * SMON * CHLD YAD ADLT SNR * AH * VAPN * CDM DEC FPSY PRS CM IPC SPS ES,33.624140877243775,-112.17667376296468
174,252,BBC Scottsdale,Hopess Shaw Butte,4444 West Shaw Butte Drive,,Glendale,AZ,85304,602-327-8375,833-467-3729,,,,SA MH SUMH * RES * RTCA * CHLOR FLUPH HALOP LOXAP PERPH PIMOZ PROCH THIOT THIOR TRIFL NRT NSC ANTPYCH * AT CBT CFT DBT GT IDD IPT TELE * CIT PEON * PVTP * ITU MD PI SF * SS * TAY SE GL CJ CO HV DV TRMA TBI SMI * STU * HIVT STDT TBS MST HBT HCT LABT * HS PEER * TCC * SMPD * YAD ADLT SNR * VPPD * CDM COOT DEC FPSY ICM IMR LAD PRS SEMP SH VRS CM IPC SPS ES,33.59406317086481,-112.1752436206224
175,253,Community Connections LLC,39th Avenue,17604 North 39th Avenue,,Glendale,AZ,85308,602-761-2430,623-242-8640,,,,MH SUMH * RES * RTCA * AT CBT CFT DBT EMDR GT IDD IPT * PVTP * MD * PED * SMPD * YAD ADLT SNR * VPPD * DEC,33.659863202432675,-112.18030340614385
176,254,Corebella Health and Wellness,,5700 West Olive Avenue,Suite 103,Glendale,AZ,85302,602-492-9595,,,,,SA MH * OP * NRT NSC ANTPYCH * AT CBT CRT CFT DBT EMDR GT IDD IPT TELE * WI * PVTP * MHC * MC MD MI PI SF * STU * TCC * SMON * YAD ADLT SNR * SP * VAPN * CDM DEC FPSY IMR IPC SPS,33.56852887969285,-112.17611306385419
177,255,Corebella Health and Wellness,,6565 East Greenway Parkway,Suite 102,Glendale,AZ,85302,602-492-9595,,,,,SA MH * OP * NRT NSC ANTPYCH * AT CBT CRT CFT DBT EMDR GT IDD IPT TELE * WI * PVTP * MHC * MC MD MI PI SF * STU * TCC * SMON * YAD ADLT SNR * SP * VAPN * CDM DEC FPSY IMR IPC SPS,33.56852887969285,-112.17611306385419
178,256,La Frontera Arizona EMPACT SPC,,4425 West Olive Avenue,Suite 194,Glendale,AZ,85302,480-317-2211,480-317-2211 x3,,,,SA MH SUMH * OP * OMH * CHLOR FLUPH HALOP LOXAP PERPH ARIPI ASENA BREXP CARIP CLOZA LURAS OLANZ PALIP QUETI RISPE ZIPRA ANTPYCH * AT CBT CFT DBT EMDR GT IDD IPT TELE AIM * CIT PEOFF * PVTN * CMHG MD SF * SS * VET TRMA PTSD * STU * MST * HS PEER * TCC * SMPD * CHLD YAD ADLT SNR * AH * VPPD * DEC FPSY PRS SEMP SH VRS CM SPS,33.56852887969285,-112.17611306385419
179,257,Lifeline Professional Counseling Servs,,17235 North 75th Avenue,Suite F-100,Glendale,AZ,85308,480-641-1165,,,,,SA MH SUMH * OP PHDT * OMH * AT CBT CFT DBT EMDR GT IDD IPT TELE * CIT * PVTP * CLF ITU MC MD MI PI SCJJ SF SI SWFS * TAY SE GL VET ADM MF CJ CO HV DV TRMA TBI PED PEFP PTSD SED SMI * STU * TCC * SMPD * CHLD YAD ADLT SNR * AH SP NX FX * F4 F17 F36 * VPPD * ACT COOT DEC FPSY CM IPC SPS,33.659863202432675,-112.18030340614385
180,258,Terros Health,Olive Health Center,6153 West Olive Avenue,,Glendale,AZ,85302,602-389-3560,602-685-6000,,,,SA MH SUMH * OP * OMH * NSC * CBT CFT DBT GT IDD IPT TELE * CIT PEON PEOFF WI * PVTN * FQHC * CMHG CSBG ITU MC MD MI PI SF SI SMHA SWFS VAF * PA SS * CJ CO TRMA PTSD * STU * PEER * TCC * SMON * CHLD YAD ADLT SNR * AH SP * VAPN * CDM DEC FPSY IMR PRS CM IPC SPS,33.56852887969285,-112.17611306385419
181,259,Transitions Counseling and Consulting,,7155 West Campo Bello Drive,Suite C-120,Glendale,AZ,85308,602-363-0629,,,,,MH * OP PHDT * OMH * AT CBT CFT DBT EMDR GT IDD IPT TELE * PVTP * MI PI SF VAF * TAY ADM SED * STU * TCC * SMPD * CHLD YAD ADLT SNR * SP * VPPD * SPS,33.659863202432675,-112.18030340614385
182,260,Transitions Counseling and Consulting,,18001 North 79th Avenue,Suite B-48,Glendale,AZ,85308,602-363-0629,,,,,MH * OP * OMH * AT CBT CFT DBT EMDR GT IDD IPT TELE * PVTP * MI PI SF VAF * TAY SED * STU * TCC * SMPD * CHLD YAD ADLT SNR * SP * VPPD * SPS,33.659863202432675,-112.18030340614385
183,261,Horizon Health and Wellness,Globe Office,415 West Baseline Spur,,Globe,AZ,85501,833-431-4449,,480-983-0065,,,SA MH SUMH * OP * OMH * ANTPYCH * CBT CFT DBT EMDR GT IDD IPT TELE AIM * PVTN * CMHG CSBG MC MD PI SF * PA SS * STU * PEER * TCC * SMPD * CHLD YAD ADLT SNR * AH SP * VPPD * COOT FPSY ICM PRS VRS CM SPS,33.41455184457547,-110.78582745849056
184,262,Arizonas Children Association,,1300 South Litchfield Road,Suite 210-A,Goodyear,AZ,85338,623-889-0091,800-944-7611 x2293,,,,MH * OP * OMH * CBT CFT DBT GT IPT TELE AIM * PVTN * CMHG MD SF SWFS * SS * TAY TRMA SED * MST * SMPD * CHLD YAD * AH SP * VPPD * FPSY ICM CM SPS,33.39951887599094,-112.41905038148357
185,263,COPE Community Services Inc,Villa Verde,1660 West Commerce Point Place,,Green Valley,AZ,85614,520-625-3835,520-205-4732,,,,SA MH SUMH * OP * OMH * FLUPH HALOP LOXAP ARIPI ASENA BREXP CARIP CLOZA ILOPE LURAS OLANZ PALIP QUETI RISPE ZIPRA NSC ANTPYCH * AT CBT CFT DBT EMDR GT IDD IPT TELE AIM * PVTN * CMHG CSBG MC MD PI * CO SMI * STU * HIVT STDT TBS MST HBT HCT LABT * HS PEER * TCC * SMPD * CHLD YAD ADLT SNR * AH * VPPD * FPSY VRS CM SPS,31.878837860714288,-110.99310262142856
186,264,Marys Mission and Development Center,,8360 South Highway 92,,Hereford,AZ,85615,520-417-2115,,,,,SA MH SUMH * RES * RTCC * NRT * AT CBT CFT DBT GT IDD IPT TELE * CIT * PVTN * CLF ITU MD OSF PI SCJJ SI SMHA SWFS * SS * GL CJ CO TRMA PTSD SED * STU * HS PEER * TCC * SMON * CHLD * SP * VAPN * COOT DEC FPSY ICM PRS SEMP SH CM SPS ES,31.384535103797464,-110.15650343670886
187,265,Mohave Mental Health Clinic Inc,,3505 Western Avenue,,Kingman,AZ,86409,928-757-8111,,,,,SA MH SUMH * OP * OMH * CHLOR DROPE FLUPH HALOP LOXAP PERPH PIMOZ PROCH THIOT THIOR TRIFL ARIPI ASENA BREXP CARIP CLOZA ILOPE LURAS OLANZ OLANZF PALIP QUETI RISPE ZIPRA NRT NSC ANTPYCH * AT CBT CFT DBT GT IDD IPT TELE AIM * CIT PEON PEOFF WI * PVTN * FQHC * CMHG CSBG ITU MC MD MI PI SF SI SMHA * PA SS * SE CO TRMA SMI * STU * MST LABT * HS PEER * TCC * SMON * YAD ADLT SNR * AH SP * VAPN * ACT CDM COOT DEC FPSY ICM PRS SEMP VRS CM IPC SPS,35.25710316969697,-114.02124005151515
188,266,Mohave Mental Health Clinic Inc,Child and Family Service Center,915 Airway Street,,Kingman,AZ,86409,928-757-8111 x6641,928-757-8111,,,,SA MH SUMH * OP * OMH * AT CBT CFT DBT GT IDD IPT TELE AIM * CIT PEON PEOFF WI * PVTN * FQHC * CMHG ITU MC MD SF SI SMHA * PA SS * TAY GL CO TRMA PEFP PTSD SED * STU * MST * TCC * SMON * CHLD YAD * AH * VAPN * COOT FPSY VRS CM SPS,35.25710316969697,-114.02124005151515
189,267,Mohave Mental Health Clinic Inc,Holmes House,1080 Sheldon Avenue,,Kingman,AZ,86409,928-757-8111 x3371,928-757-8111,,,,SA MH SUMH * RES * RTCA * HALOP CLOZA QUETI RISPE ZIPRA NRT NSC ANTPYCH * AT IDD TELE AIM * PEON * PVTN * CMHG ITU MC MD SF SI SMHA * SS * SE CO TRMA SMI * STU * MST * PEER * TCC * SMON * YAD ADLT SNR * AH * VAPN * COOT DEC FPSY PRS VRS CM SPS,35.25710316969697,-114.02124005151515
190,268,Mohave Mental Health Clinic Inc,Pathways Facility,1741 Sycamore Avenue,,Kingman,AZ,86409,928-757-8111,,,,,SA MH SUMH * HI * CHLOR DROPE FLUPH HALOP LOXAP PERPH PIMOZ PROCH THIOT THIOR TRIFL ARIPI ASENA BREXP CARIP CLOZA ILOPE LURAS OLANZ OLANZF PALIP QUETI RISPE ZIPRA NRT NSC ANTPYCH * AT CBT GT IDD IPT AIM * PEON * PVTN * CMHG CSBG MD PI SF SI * PA * STU * MST LABT * PEER * TCC * SMON * YAD ADLT SNR * AH SP * VAPN * COOT DEC FPSY PRS CM SPS,35.25710316969697,-114.02124005151515
191,269,Arizonas Children Association,,1407 McCulloch Boulevard North,Unit B,Lake Havasu City,AZ,86403,928-680-4458,800-944-7611 x2293,,,,MH * OP * OMH * AT CBT CFT GT IPT TELE AIM * PVTN * CMHG MD SF SWFS * SS * TAY TRMA SED * MST * SMPD * CHLD YAD * AH SP * VPPD * FPSY ICM CM SPS,34.48025532631579,-114.33828406842106
192,270,Mohave Mental Health Clinic Inc,,2187 Swanson Avenue,,Lake Havasu City,AZ,86403,928-855-3432,,,,,SA MH SUMH * OP * OMH * CHLOR DROPE FLUPH HALOP LOXAP PERPH PIMOZ PROCH THIOT THIOR TRIFL ARIPI ASENA BREXP CARIP CLOZA ILOPE LURAS OLANZ OLANZF PALIP QUETI RISPE ZIPRA NRT NSC ANTPYCH * AT CBT CFT DBT GT IDD IPT TELE AIM * CIT PEON PEOFF * PVTN * CMHG CSBG MC MD MI PI SF SI * PA SS * CO TRMA SMI * STU * MST LABT * HS PEER * TCC * SMON * YAD ADLT SNR * AH SP * VAPN * CDM COOT DEC FPSY ICM PRS SEMP VRS CM SPS,34.48025532631579,-114.33828406842106
193,271,Mohave Mental Health Clinic Inc,Children and Family Services,151 Riviera Drive,Suite B,Lake Havasu City,AZ,86403,928-757-8111 x6641,928-757-8111,,,,SA MH SUMH * OP * OMH * AT CBT CFT DBT EMDR GT IDD IPT TELE AIM * CIT PEON PEOFF WI * PVTN * FQHC * CMHG ITU MC MD SF SI SMHA * PA SS * TAY GL CO TRMA PEFP PTSD SED * STU * MST * TCC * SMON * CHLD YAD * AH SP * VAPN * COOT FPSY VRS CM SPS,34.48025532631579,-114.33828406842106
194,272,ChangePoint Psychiatric Hospital,Inpatient Facility,1920 West Commerce Drive,,Lakeside,AZ,85929,928-368-4110,928-537-2951,,,,SA MH SUMH * HI * PSY * CHLOR DROPE FLUPH HALOP LOXAP PERPH PIMOZ PROCH THIOT THIOR TRIFL ARIPI ASENA BREXP CARIP CLOZA ILOPE LURAS OLANZ OLANZF PALIP QUETI RISPE ZIPRA NRT NSC ANTPYCH * AT CBT CFT DBT GT IDD IPT TELE AIM * CIT PEON PEOFF WI * PVTN * CMHG MC MD PI SF SMHA SWFS * SE GL VET MF CO HV TRMA TBI ALZ PED PTSD SMI * STU * TBS LABT * PEER * TCC * SMON * YAD ADLT SNR * AH * VAPN * ACT COOT DEC FPSY ICM CM IPC SPS ES,34.175473060282776,-109.99240476651671
195,273,Arizona Mentor,Hawthorne,5621 South 51st Drive,,Laveen,AZ,85339,602-200-9494,,,,,MH * RES * RTCA * ANTPYCH * AT CBT GT IPT * PVTP * CMHG CSBG MD SF SMHA * SMI * STU * TCC * SMPD * YAD ADLT SNR * VPPD * COOT DEC PRS SPS,33.37015865420383,-112.18227809335603
196,274,Beautiful Beginnings Sober Living Home,,4813 West Caldwell Street,,Laveen,AZ,85339,623-418-8313,623-418-8312,,,,SA MH * OP * ORES * GT * PEON PEOFF * PVTP * ITU MD SF * SS * SMPD * YAD ADLT * VPPD,33.37015865420383,-112.18227809335603
197,275,Destiny Sober Living,Carver Ranch,11629 South 43rd Avenue,,Laveen,AZ,85339,602-249-6674,,602-249-6675,,,SA MH SUMH * RES * RTCA * HALOP ARIPI OLANZ OLANZF QUETI RISPE ZIPRA NSC ANTPYCH * AT CBT CRT CFT DBT GT IDD IPT TELE * CIT * PVTP * MD PI SF * PA * VET CO HV DV TRMA TBI PED PEFP PTSD SMI * STU * HS PEER * TCC * SMPD * YAD ADLT SNR * VAPN * ACT COOT FPSY PRS VRS CM ES,33.37015865420383,-112.18227809335603
198,276,Canyonlands Healthcare,Beaver Dam,3272 East Rio Virgin Road,,Littlefield,AZ,86432,928-347-5971,,,,,SA MH SUMH * OP * NSC ANTPYCH * AT CBT CFT IDD IPT TELE * PVTN * FQHC MHC * ITU MC MD MI PI SF SI * PA SS * TAY SE GL VET ADM MF CJ CO HV TRMA TBI ALZ PED PTSD SED SMI * STU * MST LABT * PEER * TCC * SMON * CHLD YAD ADLT SNR * VAPN * COOT DEC IPC,36.828023606,-113.978784874
199,277,Marana Health Center Inc,DBA MHC Healthcare,13395 North Marana Main Street,Building B,Marana,AZ,85653,520-682-1091,,,,,SA MH SUMH * OP * CHLOR FLUPH HALOP LOXAP PERPH PIMOZ PROCH THIOT THIOR TRIFL ARIPI ASENA BREXP CARIP CLOZA ILOPE LURAS OLANZ OLANZF PALIP QUETI RISPE ZIPRA NRT ANTPYCH * CBT CFT DBT EMDR GT IDD IPT TELE * PEON * PVTN * FQHC * MC MD MI PI SF SI SWFS * SS * TAY SE GL CJ CO DV TRMA PTSD SED SMI * STU * LABT * HS PEER * TCC * SMON * CHLD YAD ADLT SNR * AH SP * VAPN * COOT DEC SEMP VRS CM IPC SPS,32.43560294242425,-111.2106733439394
200,278,La Frontera Arizona EMPACT SPC,,21476 North John Wayne Parkway,Suite C-101,Maricopa,AZ,85139,520-316-6068,520-316-6068 x3,480-784-1514,,,SA MH SUMH * OP * OMH * CHLOR FLUPH HALOP LOXAP PERPH ARIPI ASENA BREXP CARIP CLOZA LURAS OLANZ PALIP QUETI RISPE ZIPRA ANTPYCH * AT CBT CFT DBT EMDR GT IDD IPT TELE AIM * PVTN * MD SF * SS * TRMA PTSD * STU * MST * HS PEER * TCC * SMPD * CHLD YAD ADLT SNR * AH * VPPD * COOT FPSY PRS SEMP SH VRS CM SPS,33.04986725529412,-112.08975831529412
201,279,Spring Ridge Academy,,13690 South Burton Road,,Mayer,AZ,86333,928-632-4602 x1140,928-632-4602,,,,SA MH SUMH * OP PHDT RES * MSMH * ANTPYCH * AT CBT CRT CFT DBT EMDR GT IDD IPT TELE * CIT PEON * PVTP * CMHG CSBG ITU MD MI OSF PI SEF SF SI SMHA SWFS VAF * GL MF CO TRMA PED PTSD SED * TBS * SMON * CHLD * VAPN * FPSY SPS ES,34.358406175,-112.203740925
202,280,A New Leaf Inc,Dorothy B Mitchell Counseling Center,1655 East University Drive,,Mesa,AZ,85203,480-969-6955,,,,,SA MH SUMH * OP * OMH * CBT CFT DBT GT IPT TELE * PVTN * CMHG MD PI SCJJ SF SWFS * SS * STU * SMON * CHLD YAD ADLT * AH SP * VAPN * FPSY CM SPS,33.43762000688649,-111.80530886223784
203,281,Arizona Mentor,Keats,7561 East Keats Avenue,,Mesa,AZ,85209,602-200-9494,,,,,MH * RES * RTCA * OLANZ QUETI RISPE ANTPYCH * AT CBT GT IPT * PVTP * CMHG CSBG MD SF SMHA * SMI * STU * TCC * SMPD * YAD ADLT SNR * AH * VPPD * COOT DEC PRS SPS,33.375638494541306,-111.64065621603031
204,282,Bayless Integrated Healthcare,Dobson Therapeutic Wellness,2204 South Dobson Road,Suite 201,Mesa,AZ,85202,602-230-7373,,,,,SA MH SUMH * OP * OMH * NRT NSC * AT CBT CRT CFT DBT EMDR GT IDD IPT TELE AIM * WI * PVTP * MC MD MI PI SF SI * TAY SE GL VET ADM MF CO HV DV TRMA TBI PED PEFP PTSD * STU * HIVT STDT TBS MST HBT HCT LABT * TCC * SMPD * CHLD YAD ADLT SNR * AH SP * VPPD * ACT CDM DEC FPSY CM IPC SPS,33.371621327845624,-111.87682278164795
205,283,Chicanos Por La Causa,Centro Esperanza,325 North Stapley Drive,,Mesa,AZ,85203,480-615-3800,,,,,SA MH SUMH * OP * OMH * FLUPH ARIPI CLOZA OLANZ RISPE ANTPYCH * CBT DBT GT IDD IPT TELE * PVTN * CMHG MC MD PI * CO SMI * STU * MST LABT * PEER * SMPD * YAD ADLT SNR * AH SP * VPPD * COOT VRS CM,33.43762000688649,-111.80530886223784
206,284,Community Bridges Inc,CPEC OSC,358 East Javelina Avenue,Suite 101,Mesa,AZ,85210,480-507-3180,877-931-9142,,,,SA MH SUMH * OP * OMH * NRT NSC ANTPYCH * CBT GT IDD IPT TELE AIM * CIT PEON PEOFF WI * PVTN * CMHG MC MD MI PI SF SI SMHA * PA * CO * STU * PEER * TCC * SMON * YAD ADLT SNR * AH SP * VAPN * CDM COOT FPSY IMR PRS CM IPC SPS ES,33.3766941764977,-111.8477012996083
207,285,Family Service Agency,Mesa Site,1107 South Gilbert Road,Suite 104,Mesa,AZ,85204,480-507-8619,602-726-4328 x8618,602-726-4339 x8662,,,SA MH SUMH * OP * OMH * CBT CFT DBT EMDR GT IDD IPT TELE * PVTN * MC MD SF SWFS * SS * TAY GL CO * SMPD * CHLD YAD ADLT SNR * AH SP FX * F4 F25 F70 * VPPD * ACT COOT FPSY CM,33.40144185035645,-111.79068816659753
208,286,Lifewell,,262 East University Drive,,Mesa,AZ,85201,602-808-2800,,602-808-2822,,,SA MH SUMH * OP * OMH * CBT DBT GT IDD IPT TELE * PVTN * CMHG MC MD MI SF * SS * CO * MST * SMPD * YAD ADLT SNR * AH * VPPD * ACT COOT PRS SEMP VRS CM IPC SPS ES,33.439349876675394,-111.84096603468588
209,287,Lifewell Behavioral Wellness,,6915 East Main Street,,Mesa,AZ,85207,602-808-2800,,602-808-2822,,,SA MH SUMH * OP * OMH * CBT DBT EMDR GT IDD IPT TELE * PVTN * CMHG MC MD MI SF * SS * CO TRMA PTSD * MST * SMPD * YAD ADLT SNR * AH * VPPD * ACT COOT PRS SEMP VRS CM IPC SPS ES,33.43680766479842,-111.63115117293046
210,288,Marc Community Resources Inc,,4250 East Florian Avenue,,Mesa,AZ,85206,480-844-1653,,,,,SA MH SUMH * OP * OMH * CBT GT TELE * PVTN * MC MD * CO SED * SMPD * CHLD YAD ADLT SNR * AH * VPPD * CM,33.397968110357276,-111.70445423523375
211,289,Marc Community Resources Inc,El Jardin,418 South Hall,,Mesa,AZ,85204,480-241-5654 x152,,,,,MH * OP * PVTN * MD SI * SE * HS * SMPD * YAD ADLT SNR * AH * VPPD * SH CM,33.40144185035645,-111.79068816659753
212,290,Marc Community Resources Inc,Wesleyan,924 North Country Club Drive,"Building 1, Suite 114",Mesa,AZ,85210,480-352-1499 x152,,,,,MH * ORES * PVTN * MC MD * SE * HS PEER * SMPD * YAD ADLT SNR * AH * VAPN * DEC,33.3766941764977,-111.8477012996083
213,291,MIND 24/7,Mesa,1138 South Higley Road,,Mesa,AZ,85206,844-646-3247,,,,,MH SUMH * OP * OMH * HALOP ARIPI LURAS RISPE ANTPYCH * CFT GT IPT AIM * CIT PEON WI * PVTP * MC MD PI SF SMHA * STU * LABT * SMPD * CHLD YAD ADLT SNR * AH * VPPD * FPSY CM,33.397968110357276,-111.70445423523375
214,292,OCD and Anxiety Treatment Center,,1801 South Extension Road,,Mesa,AZ,85210,801-298-2000,,,,,MH * OP * OMH * CBT CFT DBT GT IPT TELE * PVTP * PI SF * TAY GL TRMA ALZ PTSD SED SMI * SMON * CHLD YAD ADLT SNR * VAPN * FPSY CM SPS,33.3766941764977,-111.8477012996083
215,293,Resolution Group,,623 West Southern Avenue,Suite 7,Mesa,AZ,85210,480-962-9288,480-962-9288 x103,,,,MH * OP * OMH * AT CBT CFT EMDR GT IPT TELE * PVTP * CLF CMHG CSBG OSF PI SCJJ SF SI SMHA SWFS * TAY GL TRMA PED PTSD SMI * SMON * CHLD YAD ADLT SNR * AH SP NX FX * F4 F17 F19 F25 F28 F30 F31 F35 F36 F37 F42 F43 F47 F66 F67 F70 F81 F92 N24 N40 * VAPN * COOT CM,33.3766941764977,-111.8477012996083
216,294,SEEK Arizona,,1830 South Alma School Road,Suite 130,Mesa,AZ,85210,602-926-1533 x101,480-902-0771 x124,480-902-0771 x100,,,MH * OP * OMH * AT CBT CFT GT IPT TELE * PVTP * CLF MC MD MI OSF PI SF SI SMHA SWFS * TAY TBI SED * SMON * CHLD YAD ADLT * AH SP * VAPN * FPSY PRS ES,33.3766941764977,-111.8477012996083
217,295,Southwest Behavioral Health Services,Mesa Clinic,1255 West Baseline Road,Suite 138,Mesa,AZ,85202,602-257-9339,480-820-5422,,,,SA MH SUMH * OP * OMH * CHLOR FLUPH HALOP LOXAP PERPH PIMOZ THIOT THIOR TRIFL ARIPI ASENA BREXP CARIP CLOZA LURAS OLANZ PALIP QUETI RISPE ZIPRA ANTPYCH * CBT CFT GT IDD IPT TELE AIM * PVTN * CMHG FG MC MD PI SF * SED * STU * MST LABT * HS * TCC * SMPD * CHLD YAD ADLT SNR * AH SP * VPPD * CDM DEC FPSY CM IPC SPS ES,33.371621327845624,-111.87682278164795
218,296,Stand Together and Recover Centers,,1310 West University Drive,,Mesa,AZ,85201,480-649-3642,,,,,SA MH SUMH * OP * OMH * AT CBT DBT EMDR GT IDD IPT TELE * PVTN * CLF CMHG CSBG MC MD PI SF SI SMHA * SS * TAY SE GL VET CJ CO HV TRMA TBI PTSD SMI * HS PEER * TCC * SMPD * YAD ADLT SNR * AH SP * VPPD * AOT CDM COOT DEC IMR PRS VRS CM SPS ES,33.439349876675394,-111.84096603468588
219,297,U Turn Foundation,,1820 South Los Almos,,Mesa,AZ,85204,480-634-1163,,,,,MH SUMH * RES * RTCC * CBT GT IPT * CIT * PVTN * ITU SCJJ SI SWFS * TAY * SMON * CHLD * VAPN * COOT FPSY CM ES,33.40144185035645,-111.79068816659753
220,298,UTurn Foundation,Freeway,5035 East Dragoon Circle,,Mesa,AZ,85206,480-634-1163,,,,,MH SUMH * OP RES * RTCC * CBT GT IPT * CIT * PVTN * ITU SCJJ SI SWFS * TAY * SMON * CHLD * VAPN * COOT FPSY CM ES,33.397968110357276,-111.70445423523375
221,299,Valle del Sol,,4135 South Power Road,Suite 108,Mesa,AZ,85212,602-258-6797,,,,,SA MH SUMH * OP * CMHC * CBT CFT DBT GT IDD IPT TELE AIM * WI * PVTN * CMHG CSBG MC MD OSF PI SF SI SMHA SWFS * SS * TAY CO SMI * STU * MST * HS PEER * TCC * SMON * CHLD YAD ADLT SNR * AH SP * VAPN * CDM COOT FPSY PRS VRS CM SPS ES,33.33664542406196,-111.61936815466437
222,300,Valle del Sol,,334 West 10th Place,Suite 100,Mesa,AZ,85201,602-258-6797,,,,,SA MH SUMH * OP * CMHC * CBT CFT DBT GT IDD IPT TELE AIM * WI * PVTN * FQHC * CMHG CSBG MC MD OSF PI SF SI SMHA SWFS * SS * TAY CO SMI * STU * MST * HS PEER * TCC * SMPD * CHLD YAD ADLT SNR * AH SP * VPPD * CDM DEC FPSY ICM PRS VRS CM IPC SPS ES,33.439349876675394,-111.84096603468588
223,301,Valleywise Behavioral Health Center,Mesa,570 West Brown Road,,Mesa,AZ,85201,480-344-2086,480-344-2195,480-344-2194,,,SA MH SUMH * HI OP * IPSY * CHLOR FLUPH HALOP LOXAP PERPH PROCH THIOT TRIFL ARIPI CLOZA LURAS OLANZ PALIP QUETI RISPE ZIPRA NRT NSC ANTPYCH * AT CBT CFT GT IPT AIM * LCCG * CLF MC MD OSF PI SCJJ SF SMHA * CJ CO SED SMI * STU * HIVT STDT TBS MST HBT HCT LABT * PEER * TCC * SMON * CHLD YAD ADLT SNR * AH SP * VAPN * ACT COOT FPSY CM,33.439349876675394,-111.84096603468588
224,302,Arizonas Children Association,,1860 North State Drive,Suite 6,Nogales,AZ,85621,520-377-0843,800-944-7611 x2293,,,,MH * OP * OMH * CBT CFT DBT GT IPT TELE AIM * PVTN * CMHG MD SF SWFS * SS * TAY TRMA SED * MST * SMPD * CHLD YAD * AH SP * VPPD * FPSY ICM CM SPS,31.35713270218978,-110.94839979854014
225,303,Intermountain Health Centers Inc,,276 West View Point Drive,,Nogales,AZ,85621,520-281-0678,,,,,SA MH SUMH * OP * OMH * ANTPYCH * AT CBT CFT DBT GT IDD IPT TELE AIM * PVTN * MC MD PI SF * TAY SE GL CO TRMA PED PTSD SED * STU * PEER * TCC * SMPD * CHLD YAD ADLT * AH * VPPD * ACT COOT FPSY PRS SEMP SH TPC VRS CM SPS,31.35713270218978,-110.94839979854014
226,304,Pinal Hispanic Council,,275 North Grand Court Plaza,,Nogales,AZ,85621,520-721-1887 x4102,520-287-0015,520-287-0019,,,SA MH SUMH * OP * OMH * ANTPYCH * AT CBT CFT DBT GT IDD IPT TELE AIM * PVTN * MC MD PI SF * TAY SE GL CO TRMA PED PTSD SED * STU * PEER * TCC * SMPD * CHLD YAD ADLT * AH * VPPD * ACT COOT FPSY PRS SEMP SH TPC VRS CM SPS,31.35713270218978,-110.94839979854014
227,305,Horizon Health and Wellness,,980 East Mount Lemmon Highway,,Oracle,AZ,85623,520-896-6019,,,,,SA MH SUMH * OP * OMH * ANTPYCH * CBT CFT DBT GT IDD IPT TELE AIM * PVTN * FQHC * CMHG CSBG MC MD PI SF * PA SS * STU * HIVT STDT TBS MST LABT * PEER * TCC * SMPD * CHLD YAD ADLT SNR * AH SP * VPPD * COOT FPSY ICM PRS VRS CM IPC SPS,32.58860075933076,-110.91276418442729
228,306,Canyonlands Healthcare,Lake Powell Medical Center,467 Vista Avenue,,Page,AZ,86040,928-645-8123 x2211,,,,,SA MH SUMH * OP * NSC ANTPYCH * AT CBT CFT IDD IPT TELE * PVTN * FQHC MHC * ITU MC MD MI PI SF SI * PA SS * TAY SE GL VET ADM MF CJ CO HV TRMA TBI ALZ PED PTSD SED SMI * STU * MST LABT * PEER * TCC * SMON * CHLD YAD ADLT SNR * VAPN * COOT DEC IPC,36.71179874396552,-111.5538762775862
229,307,Encompass Health Services,Page Outpatient,463 South Lake Powell Boulevard,,Page,AZ,86040,928-645-5113,,,,,SA MH SUMH * OP * OMH * HALOP LOXAP ARIPI CLOZA LURAS OLANZ OLANZF PALIP QUETI RISPE NRT NSC ANTPYCH * AT CBT CFT DBT GT IDD IPT TELE AIM * CIT PEON PEOFF WI * PVTN * CMHG CSBG ITU MC MD MI PI SF SI VAF * CJ CO TRMA SMI * STU * HIVT STDT TBS MST HBT HCT LABT * HS PEER * TCC * SMPD * CHLD YAD ADLT SNR * AH * VPPD * CDM COOT DEC FPSY ICM IMR PRS SEMP SH VRS CM IPC SPS ES,36.71179874396552,-111.5538762775862
230,308,Resilient Health,PSA Behavioral Health Agency,820 California Avenue,Suite 104,Parker,AZ,85344,602-393-3155,928-669-5415,877-779-2470,,,MH SUMH * OP * OMH * AT GT TELE * PVTN * CMHG FG MD SF * SE CO TRMA PTSD SMI * STU * PEER * SMPD * YAD ADLT SNR * VPPD * PRS,34.14212368387096,-114.27445338064516
231,309,Caring Connections for,Special Needs LLC,708 Highway 260,Suite C-7,Payson,AZ,85541,520-639-9006,,,,,MH SUMH * OP * OMH * PVTP * CMHG MD * SMON * CHLD * AH * VAPN * FPSY CM,34.27813065843426,-111.19005315250864
232,310,Community Bridges Inc,Payson Outpatient Services Center 2,803 West Main Street,,Payson,AZ,85541,480-589-1705,877-931-9142,,,,SA MH SUMH * OP * OMH * NRT * GT IPT * CIT * PVTN * MC MD PI SF * PA * CO SMI * STU * TCC * SMON * YAD ADLT SNR * AH * VAPN * ICM CM,34.27813065843426,-111.19005315250864
233,311,Southwest Behavioral and Health Servs,,404 West Aero Drive,,Payson,AZ,85541,928-474-3303,,,,,SA MH SUMH * OP * OMH * ANTPYCH * AT CBT CFT DBT EMDR GT IPT TELE * CIT PEOFF * PVTN * CMHG CSBG OSF PI SF SI * TAY SE GL VET ADM MF CJ CO HV DV TRMA TBI PED PEFP PTSD SED SMI * HS PEER * SMPD * CHLD YAD ADLT SNR * VPPD * COOT DEC FPSY ICM SEMP VRS CM ES,34.27813065843426,-111.19005315250864
234,312,Arizona Mentor,Jasmine,12502 North 85th Lane,,Peoria,AZ,85381,602-200-9494,602-200-9494 x2023,602-200-9494 x4975,,,SA MH SUMH * RES * RTCA * OLANZ QUETI RISPE ANTPYCH * AT CBT GT IDD IPT * PVTP * CMHG CSBG MD SF SMHA * CO SMI * STU * TCC * SMPD * YAD ADLT SNR * VPPD * COOT DEC PRS SPS,33.60810907709614,-112.23194293742316
235,313,Choice Wellness,,29400 North 123rd Glen,,Peoria,AZ,85383,623-326-0312,,480-527-3873,,,SA MH SUMH * RES * RTCA * QUETI ANTPYCH * AT CBT CRT CFT DBT GT IDD IPT * CIT PEOFF * PVTP * MC PI * GL VET DV TRMA PTSD SMI * TBS * PEER * SMPD * YAD ADLT SNR * VPPD * COOT DEC LAD SEMP SH CM IPC ES,33.70526458628508,-112.24948818984039
236,314,Hope Community Services, Formerly West Valley Child Crisis Ctr,13760 North 93rd Avenue,Suite 101,Peoria,AZ,85381,623-848-8863,,,,,SA MH SUMH * OP * OMH * AT CBT CFT EMDR IDD IPT * PVTN * MD * GL CJ CO TRMA PTSD SED * SMPD * CHLD * AH SP * VAPN * FPSY CM,33.60810907709614,-112.23194293742316
237,315,Partners in Recovery LLC,West Valley Campus,14100 North 83rd Avenue,Suite 100,Peoria,AZ,85381,623-583-0232,,,,,SA MH SUMH * OP * OMH * ANTPYCH * CBT GT TELE * PVTN * MC MD PI SF * CO SMI * STU * MST LABT * PEER * TCC * SMPD * YAD ADLT SNR * AH * VPPD * ACT COOT DEC PRS VRS CM IPC SPS,33.60810907709614,-112.23194293742316
238,316,Southwest Network,Bell Road,9051 West Kelton Lane,,Peoria,AZ,85382,623-815-5700,602-304-0014,,,,SA MH * OP * OMH * CBT CFT GT IPT TELE * PVTN * CMHG MC MD PI SF SMHA * SS * TAY SE CO TRMA PED PTSD SED * STU * SMPD * CHLD YAD ADLT * AH SP * VAPN * ICM PRS CM,33.65766973484732,-112.24920467326788
239,317,2nd Chance Treatment Center,,16620 North 40th Street,Suite H-4,Phoenix,AZ,85032,602-464-9576,,,,,SA MH SUMH * OP * OMH * CBT GT IDD IPT TELE * PVTP * MHC * MC MD MI PI SF VAF * SMPD * CHLD YAD ADLT SNR * VPPD * COOT,33.62672043439066,-112.00471426490164
240,318,2nd Chance Treatment Center,,6535 West Camelback Road,Suite 4,Phoenix,AZ,85033,602-464-9576,623-231-5535,,,,SA MH SUMH * OP * OMH * CBT GT IDD IPT TELE * PVTP * MHC * MC MD MI PI SF VAF * SMPD * CHLD YAD ADLT SNR * VPPD * COOT,33.49490666899838,-112.2141873355289
241,319,Ahwatukee Healthcare,,16515 South 40th Street,Suite 119,Phoenix,AZ,85048,480-272-8450,,,,,SA MH * OP * OMH * NRT NSC * CBT DBT IDD TELE * PVTP * MHC * ITU MC MD MI PI SF SI * SE VET MF CO * STU * MST LABT * TCC * SMPD * YAD ADLT SNR * VPPD * COOT DEC ES,33.301526814452956,-112.02748043209803
242,320,Arizona Mentor,,9131 West Cambridge Avenue,,Phoenix,AZ,85037,602-200-9494,,,,,MH * RES * RTCA * ANTPYCH * AT CBT GT IPT * PVTP * CMHG CSBG MD SF SMHA * SMI * STU * TCC * SMPD * YAD ADLT SNR * VPPD * COOT DEC PRS SPS,33.49157865796437,-112.26116740178156
243,321,Arizona Mentor,,8439 West Meadowbrook Avenue,,Phoenix,AZ,85037,602-200-9494,,,,,MH * RES * RTCA * ANTPYCH * AT CBT GT IPT * PVTP * CMHG CSBG MD SF SMHA * SMI * STU * TCC * SMPD * YAD ADLT SNR * VPPD * COOT DEC PRS SPS,33.49157865796437,-112.26116740178156
244,322,Arizona Mentor,Aztec,2413 North 92nd Lane,,Phoenix,AZ,85037,602-200-9494,,,,,MH * RES * RTCA * ANTPYCH * AT CBT GT IPT * PVTP * CMHG CSBG MD SF SMHA * SMI * STU * TCC * SMPD * YAD ADLT SNR * VPPD * COOT DEC PRS SPS,33.49157865796437,-112.26116740178156
245,323,Arizona Mentor,Cactus,12002 North 28th Street,,Phoenix,AZ,85028,602-200-9494,,,,,MH * RES * RTCA * OLANZ QUETI RISPE ANTPYCH * AT CBT GT IPT * PVTP * CMHG CSBG MD SF SMHA * SMI * STU * TCC * SMPD * YAD ADLT SNR * AH * VPPD * COOT DEC PRS SPS,33.584161382081355,-112.00966684863631
246,324,Arizona Mentor,Chestnut,9287 West Belvoir Road,,Phoenix,AZ,85037,602-200-9494,,,,,MH * RES * RTCA * ANTPYCH * AT CBT GT IPT * PVTP * CMHG CSBG MD SF SMHA * SMI * STU * TCC * SMPD * YAD ADLT SNR * VPPD * COOT DEC PRS SPS,33.49157865796437,-112.26116740178156
247,325,Arizona Mentor,Evergreen,9225 West Elm Street,,Phoenix,AZ,85037,602-200-9494,,,,,MH * RES * RTCA * ANTPYCH * AT CBT GT IPT * PVTP * CMHG CSBG MD SF SMHA * SMI * STU * TCC * SMPD * YAD ADLT SNR * VPPD * COOT DEC PRS SPS,33.49157865796437,-112.26116740178156
248,326,Arizonas Children Association,,3636 North Central Avenue,Suite 300,Phoenix,AZ,85012,602-234-3733 x2527,800-944-7611 x2293,,,,MH * OP * OMH * CBT CFT DBT GT IPT TELE AIM * PVTN * CMHG MD SF SWFS * SS * TAY TRMA SED * MST * SMPD * CHLD YAD * AH SP * VPPD * FPSY ICM CM SPS,33.523171076051405,-112.06982938084111
249,327,Arizona State Hospital,Civil Hospital,501 North 24th Street,,Phoenix,AZ,85008,602-244-1331,602-220-6500,,,,MH SUMH * HI * SHP * CHLOR FLUPH HALOP LOXAP PERPH THIOT TRIFL ARIPI CLOZA OLANZ PALIP QUETI RISPE ZIPRA NRT NSC ANTPYCH * AT CBT DBT GT IDD IPT AIM * STG * MC MD OSF PI SF * SMI * STU * HIVT STDT TBS MST HBT HCT LABT * TCC * SMON * YAD ADLT SNR * AH SP * VAPN * CDM COOT DEC IMR PRS SEMP VRS CM IPC SPS ES,33.4690642889959,-112.00118071078269
250,328,Banner University Medicine,Behavioral Health Center,1300 North 12th Street,Suite 320,Phoenix,AZ,85006,602-521-3600,,602-521-3600 x3,,,MH * OP * OMH * CBT CFT DBT IPT TELE * PVTN * MC MD MI PI SF * STU * SMON * YAD ADLT SNR * AH * VAPN,33.471634366405894,-112.04855890225494
251,329,Bayless Healthcare Group,,9014 South Central Avenue,,Phoenix,AZ,85042,602-281-7292,602-230-7373 x202,,,,SA MH SUMH * OP * OMH * NRT NSC * AT CBT CRT CFT DBT EMDR GT IDD IPT TELE AIM * PEON WI * PVTP * MC MD MI PI SF SI * TAY SE GL VET ADM MF CO HV DV TRMA TBI PED PEFP PTSD * STU * HIVT STDT TBS MST HBT HCT LABT * TCC * SMPD * CHLD YAD ADLT SNR * AH SP * VPPD * ACT CDM DEC FPSY CM IPC SPS,33.375578821706014,-112.03059618552933
252,330,Bayless Healthcare Group,DBA Bayless Integrated Healthcare,3620 North 3rd Street,,Phoenix,AZ,85012,602-230-7373 x221,602-230-7373,,,,SA MH SUMH * OP * OMH * NRT NSC * AT CBT CRT CFT DBT EMDR GT IDD IPT TELE AIM * PEON WI * PVTP * MC MD MI PI SF SI * TAY SE GL VET ADM MF CO HV DV TRMA TBI PED PEFP PTSD * STU * HIVT STDT TBS MST HBT HCT LABT * TCC * SMPD * YAD ADLT SNR * AH SP * VPPD * ACT CDM DEC FPSY CM IPC SPS,33.523171076051405,-112.06982938084111
253,331,Bayless Healthcare Group,DBA Integrated Health Center,3033 North Central Avenue,Suite 700,Phoenix,AZ,85012,602-230-7373,,,,,SA MH SUMH * OP * OMH * NRT NSC * AT CBT CRT CFT DBT EMDR GT IDD IPT TELE AIM * PEON WI * PVTP * MC MD MI PI SF SI * TAY SE GL VET ADM MF CO HV DV TRMA TBI PED PEFP PTSD * STU * HIVT STDT TBS MST HBT HCT LABT * TCC * SMPD * CHLD YAD ADLT SNR * AH SP * VPPD * ACT CDM DEC FPSY CM IPC SPS,33.523171076051405,-112.06982938084111
254,332,Bayless Therapeutic Wellness,,77 East Columbus Avenue,Suite 210,Phoenix,AZ,85012,602-230-7373,,,,,SA MH SUMH * OP * OMH * NRT NSC * AT CBT CRT CFT DBT EMDR GT IDD IPT TELE AIM * WI * PVTP * MC MD MI PI SF SI * TAY SE GL VET ADM MF CO HV DV TRMA TBI PED PEFP PTSD * STU * HIVT STDT TBS MST HBT HCT LABT * TCC * SMPD * CHLD YAD ADLT SNR * AH SP * VPPD * ACT CDM DEC FPSY CM IPC SPS,33.523171076051405,-112.06982938084111
255,333,Catholic Charities Community Services,,5119 North 19th Avenue,Suite G,Phoenix,AZ,85015,602-749-4405,,,,,MH * OP * OMH * CBT CFT IPT * PVTN * MC MD PCF SF * SS * SMON * CHLD YAD ADLT SNR * SP * VAPN * COOT,33.50368714798151,-112.10181214568736
256,334,Chicanos Por La Causa Inc,Centro De La Familia,6850 West Indian School Road,,Phoenix,AZ,85033,623-247-0464,623-247-0464 x1800,623-247-0464 x1801,,,SA MH SUMH * OP * OMH * CBT CFT DBT GT IDD IPT * PVTN * CMHG MC MD PI SCJJ SF SI SMHA SWFS * SS * TAY SE GL VET ADM MF CO DV TRMA PED PTSD SED * STU * HS * SMON * CHLD YAD ADLT SNR * SP * VAPN * FPSY CM SPS,33.49490666899838,-112.2141873355289
257,335,Childhelp Childrens Center of Arizona,,2120 North Central Avenue,Suite 130,Phoenix,AZ,85004,602-271-4500,,,,,MH * OP * OMH * AT CBT CFT EMDR GT IPT * PVTN * CLF CMHG CSBG MD OSF SCJJ SI SMHA SWFS * PA * CJ TRMA PTSD SED * SMPD * CHLD * SP * VPPD * FPSY SPS,33.46325031858888,-112.07004712225238
